# ASUS SLAM Carmen-like Logfile: 20151218_111722
# file format is one message per line
# FLASER num_readings [range_readings] x y theta odom_x odom_y odom_theta enc_left enc_right timestamp
FLASER 180 0.0 0.0 0.0 0.0 0.0 0.0 0.0 0.0 0.0 0.0 0.0 0.0 0.0 0.0 0.0 0.0 0.0 0.0 0.0 0.0 0.0 0.0 0.0 0.0 0.0 0.0 0.0 0.0 0.0 0.0 0.0 0.0 0.0 0.0 0.0 0.0 0.0 0.0 0.0 0.0 0.0 0.0 0.0 0.0 0.0 0.0 0.0 0.0 0.0 0.0 0.0 0.0 0.0 0.0 0.0 0.0 0.0 0.0 0.0 0.0 0.0 0.0 0.0 0.0 0.0 0.0 0.0 0.0 8.675319 8.219712 3.8467157 4.092426 3.8659415 3.8818378 3.777 3.8726792 4.2927213 4.149606 4.7499037 4.7125688 3.8162534 4.3806415 4.358598 4.379391 4.5541863 0.0 0.0 0.0 0.0 0.0 0.0 0.0 0.0 0.0 0.0 0.0 0.0 0.0 0.0 2.4016025 2.253441 0.0 0.0 0.0 0.0 2.0523238 0.0 0.9574052 1.9081119 1.848925 1.8830535 1.8560109 1.7716658 1.7545259 1.7353146 1.7258615 0.0 0.0 0.0 0.0 0.0 0.0 0.0 0.0 0.0 0.0 0.0 0.0 0.0 0.0 0.0 0.0 0.0 0.0 0.0 0.0 0.0 0.0 0.0 0.0 0.0 0.0 0.0 0.0 0.0 0.0 0.0 0.0 0.0 0.0 0.0 0.0 0.0 0.0 0.0 0.0 0.0 0.0 0.0 0.0 0.0 0.0 0.0 0.0 0.0 0.0 0.0 0.0 0.0 0.0 0.0 0.0 0.0 0.0 0.0 0.0 0.0 0.0 0.0 0.0 0.237 5.641 13.798573 0.237 5.641 13.798573 1450437444.573000 toby 1450437444.573000
ODOM 0.237 5.641 13.798573 0.000000 0.000000 0.000000 1450437444.576000 toby 1450437444.576000
ENCODER 2805 2789 1450437444.576000 toby 1450437444.576000
FLASER 180 0.0 0.0 0.0 0.0 0.0 0.0 0.0 0.0 0.0 0.0 0.0 0.0 0.0 0.0 0.0 0.0 0.0 0.0 0.0 0.0 0.0 0.0 0.0 0.0 0.0 0.0 0.0 0.0 0.0 0.0 0.0 0.0 0.0 0.0 0.0 0.0 0.0 0.0 0.0 0.0 0.0 0.0 0.0 0.0 0.0 0.0 0.0 0.0 0.0 0.0 0.0 0.0 0.0 0.0 0.0 0.0 0.0 0.0 0.0 0.0 0.0 0.0 0.0 7.087591 0.0 0.0 0.0 0.0 9.039746 8.830478 3.819133 4.712778 4.039314 4.160454 3.8946657 3.9315755 4.1043353 3.97342 4.9581075 4.3128195 4.6331825 4.4979444 4.15391 3.7724566 3.7705839 0.0 0.0 0.0 0.0 0.0 0.0 0.0 0.0 0.0 0.0 0.0 0.0 0.0 2.4432359 2.3759482 2.4148269 0.0 2.2553835 2.13065 2.1082628 2.0755296 1.9875444 1.9346192 1.876298 1.8818091 1.906525 1.8377515 1.794047 1.6480796 4.6984186 1.7125772 1.6439689 3.3843534 0.0 0.0 0.0 0.0 0.0 0.0 0.0 0.0 0.0 0.0 0.0 0.0 0.0 0.0 0.0 0.0 0.0 0.0 0.0 0.0 0.0 0.0 0.0 0.0 0.0 0.0 0.0 0.0 0.0 0.0 0.0 0.0 0.0 0.0 0.0 0.0 0.0 0.0 0.0 0.0 0.0 0.0 0.0 0.0 0.0 0.0 0.0 0.0 0.0 0.0 0.0 0.0 0.0 0.0 0.0 0.0 0.0 0.0 0.0 0.0 0.0 0.0 0.237 5.641 13.798573 0.237 5.641 13.798573 1450437444.615000 toby 1450437444.615000
ODOM 0.237 5.641 13.798573 0.000000 0.000000 0.000000 1450437444.615000 toby 1450437444.615000
ENCODER 2805 2789 1450437444.615000 toby 1450437444.615000
FLASER 180 0.0 0.0 0.0 0.0 0.0 0.0 0.0 0.0 0.0 0.0 0.0 0.0 0.0 0.0 0.0 0.0 0.0 0.0 0.0 0.0 0.0 0.0 0.0 0.0 0.0 0.0 0.0 0.0 0.0 0.0 0.0 0.0 0.0 0.0 0.0 0.0 0.0 0.0 0.0 0.0 0.0 0.0 0.0 0.0 0.0 0.0 0.0 0.0 0.0 0.0 0.0 0.0 0.0 0.0 0.0 0.0 0.0 0.0 0.0 0.0 0.0 0.0 0.0 7.61106 7.74792 0.0 0.0 0.0 8.537717 8.978897 4.0992026 4.108251 4.214997 3.8108797 4.239913 3.9016106 3.7594767 4.035905 4.580483 4.2945104 8.673147 3.952892 4.188207 4.1858063 4.053744 3.9566453 0.0 0.0 0.0 0.0 0.0 0.0 0.0 0.0 0.0 0.0 0.0 0.0 2.491757 2.4196792 0.0 2.2003615 2.210365 2.0915744 2.1112163 2.0350769 2.0254204 0.0 1.9007503 1.8722621 1.906525 1.8431218 1.7922162 1.7765297 1.792803 1.7170054 1.6841409 1.6160934 0.0 0.0 0.0 0.0 0.0 0.0 0.0 0.0 0.0 0.0 0.0 0.0 0.0 0.0 0.0 0.0 0.0 0.0 0.0 0.0 0.0 0.0 0.0 0.0 0.0 0.0 0.0 0.0 0.0 0.0 0.0 0.0 0.0 0.0 0.0 0.0 0.0 0.0 0.0 0.0 0.0 0.0 0.0 0.0 0.0 0.0 0.0 0.0 0.0 0.0 0.0 0.0 0.0 0.0 0.0 0.0 0.0 0.0 0.0 0.0 0.0 0.0 0.237 5.641 13.798573 0.237 5.641 13.798573 1450437444.647000 toby 1450437444.647000
ODOM 0.237 5.641 13.798573 0.000000 0.000000 0.000000 1450437444.648000 toby 1450437444.648000
ENCODER 2805 2789 1450437444.648000 toby 1450437444.648000
FLASER 180 0.0 0.0 0.0 0.0 0.0 0.0 0.0 0.0 0.0 0.0 0.0 0.0 0.0 0.0 0.0 0.0 0.0 0.0 0.0 0.0 0.0 0.0 0.0 0.0 0.0 0.0 0.0 0.0 0.0 0.0 0.0 0.0 0.0 0.0 0.0 0.0 0.0 0.0 0.0 0.0 0.0 0.0 0.0 0.0 0.0 0.0 0.0 0.0 0.0 0.0 0.0 0.0 0.0 0.0 0.0 0.0 0.0 0.0 0.0 0.0 0.0 0.0 0.0 8.287425 7.984018 0.0 0.0 0.0 8.675319 8.687395 4.179829 4.344576 4.234511 4.332632 4.12159 4.023536 3.858302 3.8105497 4.7499037 4.5058746 3.8148463 4.6637855 4.0056286 3.8459089 0.0 0.0 0.0 0.0 0.0 0.0 3.4040077 0.0 0.0 0.0 0.0 0.0 0.0 0.0 2.4432359 2.4146128 0.0 2.2891107 2.2553835 0.0 0.0 2.023667 1.9875444 1.9614669 1.8775575 1.8722621 1.8958561 1.8001587 1.8257458 1.7500715 1.7279898 1.7701428 1.624983 1.6115854 0.0 0.0 0.0 0.0 0.0 0.0 0.0 0.0 0.0 0.0 0.0 0.0 0.0 0.0 0.0 0.0 0.0 0.0 0.0 0.0 0.0 0.0 0.0 0.0 0.0 0.0 0.0 0.0 0.0 0.0 0.0 0.0 0.0 0.0 0.0 0.0 0.0 0.0 0.0 0.0 0.0 0.0 0.0 0.0 0.0 0.0 0.0 0.0 0.0 0.0 0.0 0.0 0.0 0.0 0.0 0.0 0.0 0.0 0.0 0.0 0.0 0.0 0.237 5.641 13.798573 0.237 5.641 13.798573 1450437444.697000 toby 1450437444.697000
ODOM 0.237 5.641 13.798573 0.000000 0.000000 0.000000 1450437444.698000 toby 1450437444.698000
ENCODER 2805 2789 1450437444.698000 toby 1450437444.698000
FLASER 180 0.0 0.0 0.0 0.0 0.0 0.0 0.0 0.0 0.0 0.0 0.0 0.0 0.0 0.0 0.0 0.0 0.0 0.0 0.0 0.0 0.0 0.0 0.0 0.0 0.0 0.0 0.0 0.0 0.0 0.0 0.0 0.0 0.0 0.0 0.0 0.0 0.0 0.0 0.0 0.0 0.0 0.0 0.0 0.0 0.0 0.0 0.0 0.0 0.0 0.0 0.0 0.0 0.0 0.0 0.0 0.0 0.0 0.0 0.0 0.0 0.0 0.0 0.0 7.5664206 2.9785023 0.0 0.0 0.0 8.675319 9.211672 4.0525246 4.1110406 3.830099 3.9402742 4.439194 4.039035 3.9488811 4.1670203 4.684585 4.3504553 3.8584502 3.9855618 4.136762 4.4402294 0.0 3.9390054 0.0 0.0 0.0 0.0 0.0 0.0 0.0 0.0 0.0 0.0 0.0 0.0 2.4856918 2.385396 2.3716016 2.18608 2.1420527 2.1440182 2.1209111 2.051673 1.9468758 1.9534831 1.9358763 1.8690797 1.9033245 1.8248626 1.8103305 1.7304934 1.7093147 1.7170054 1.727731 3.752744 0.0 0.0 0.0 0.0 0.0 0.0 0.0 0.0 0.0 0.0 0.0 0.0 0.0 0.0 0.0 0.0 0.0 0.0 0.0 0.0 0.0 0.0 0.0 0.0 0.0 0.0 0.0 0.0 0.0 0.0 0.0 0.0 0.0 0.0 0.0 0.0 0.0 0.0 0.0 0.0 0.0 0.0 0.0 0.0 0.0 0.0 0.0 0.0 0.0 0.0 0.0 0.0 0.0 0.0 0.0 0.0 0.0 0.0 0.0 0.0 0.0 0.0 0.237 5.641 13.798573 0.237 5.641 13.798573 1450437444.737000 toby 1450437444.737000
ODOM 0.237 5.641 13.798573 0.000000 0.000000 0.000000 1450437444.738000 toby 1450437444.738000
ENCODER 2805 2789 1450437444.738000 toby 1450437444.738000
FLASER 180 0.0 0.0 0.0 0.0 0.0 0.0 0.0 0.0 0.0 0.0 0.0 0.0 0.0 0.0 0.0 0.0 0.0 0.0 0.0 0.0 0.0 0.0 0.0 0.0 0.0 0.0 0.0 0.0 0.0 0.0 0.0 0.0 0.0 0.0 0.0 0.0 0.0 0.0 0.0 0.0 0.0 0.0 0.0 0.0 0.0 0.0 0.0 0.0 0.0 0.0 0.0 0.0 0.0 0.0 0.0 0.0 0.0 0.0 0.0 0.0 0.0 0.0 0.0 7.508208 8.040983 0.0 0.0 0.0 8.537717 9.291755 4.3866987 5.5272546 4.8809643 3.7033987 4.026101 4.054534 4.02197 4.2715034 4.479443 4.917021 3.8736608 4.130868 4.188207 3.937581 0.0 0.0 0.0 0.0 0.0 0.0 0.0 0.0 0.0 0.0 0.0 0.0 0.0 0.0 2.4058378 2.4033163 2.3009284 2.253407 2.246173 0.0 2.0539014 2.0630825 1.932277 1.9455869 1.8889401 1.848925 1.9033245 1.9521447 1.8041137 1.7979677 1.7565515 1.7557515 1.6039437 0.0 0.0 0.0 0.0 0.0 0.0 0.0 0.0 0.0 0.0 0.0 0.0 0.0 0.0 0.0 0.0 0.0 0.0 0.0 0.0 0.0 0.0 0.0 0.0 0.0 0.0 0.0 0.0 0.0 0.0 0.0 0.0 0.0 0.0 0.0 0.0 0.0 0.0 0.0 0.0 0.0 0.0 0.0 0.0 0.0 0.0 0.0 0.0 0.0 0.0 0.0 0.0 0.0 0.0 0.0 0.0 0.0 0.0 0.0 0.0 0.0 0.0 0.0 0.237 5.641 13.798573 0.237 5.641 13.798573 1450437444.785000 toby 1450437444.785000
ODOM 0.237 5.641 13.798573 0.000000 0.000000 0.000000 1450437444.785000 toby 1450437444.785000
ENCODER 2805 2789 1450437444.785000 toby 1450437444.785000
FLASER 180 0.0 0.0 0.0 0.0 0.0 0.0 0.0 0.0 0.0 0.0 0.0 0.0 0.0 0.0 0.0 0.0 0.0 0.0 0.0 0.0 0.0 0.0 0.0 0.0 0.0 0.0 0.0 0.0 0.0 0.0 0.0 0.0 0.0 0.0 0.0 0.0 0.0 0.0 0.0 0.0 0.0 0.0 0.0 0.0 0.0 0.0 0.0 0.0 0.0 0.0 0.0 0.0 0.0 0.0 0.0 0.0 0.0 0.0 0.0 0.0 0.0 0.0 0.0 8.048182 8.196664 0.0 0.0 0.0 8.606518 9.055778 3.8053415 4.454298 4.039314 4.210542 4.3821087 3.8437479 3.5754273 4.184434 4.580483 4.7563076 4.9992533 3.8823054 4.086326 4.0613294 4.0281105 0.0 0.0 0.0 0.0 0.0 0.0 0.0 0.0 0.0 0.0 0.0 0.0 0.0 2.4735615 2.3810163 2.3127677 2.28401 2.2533145 0.0 2.1403024 2.0195181 2.0248325 0.0 1.8670152 1.8425605 1.9001238 1.8151958 1.7651762 1.762785 1.7375097 1.7502164 1.730383 2.9966817 0.0 0.0 0.0 0.0 0.0 0.0 0.0 0.0 0.0 0.0 0.0 0.0 0.0 0.0 0.0 0.0 0.0 0.0 0.0 0.0 0.0 0.0 0.0 0.0 0.0 0.0 0.0 0.0 0.0 0.0 0.0 0.0 0.0 0.0 0.0 0.0 0.0 0.0 0.0 0.0 0.0 0.0 0.0 0.0 0.0 0.0 0.0 0.0 0.0 0.0 0.0 0.0 0.0 0.0 0.0 0.0 0.0 0.0 0.0 0.0 0.0 0.0 0.237 5.641 13.798573 0.237 5.641 13.798573 1450437444.861000 toby 1450437444.861000
ODOM 0.237 5.641 13.798573 0.000000 0.000000 0.000000 1450437444.862000 toby 1450437444.862000
ENCODER 2805 2789 1450437444.862000 toby 1450437444.862000
FLASER 180 0.0 0.0 0.0 0.0 0.0 0.0 0.0 0.0 0.0 0.0 0.0 0.0 0.0 0.0 0.0 0.0 0.0 0.0 0.0 0.0 0.0 0.0 0.0 0.0 0.0 0.0 0.0 0.0 0.0 0.0 0.0 0.0 0.0 0.0 0.0 0.0 0.0 0.0 0.0 0.0 0.0 0.0 0.0 0.0 0.0 0.0 0.0 0.0 0.0 0.0 0.0 0.0 0.0 0.0 0.0 0.0 0.0 0.0 0.0 0.0 0.0 0.0 0.0 7.823472 7.816474 0.0 0.0 0.0 8.964495 9.291755 4.1151156 4.344576 4.39119 3.9559267 4.3457813 4.237422 5.0750875 3.9426897 4.7284713 4.4468546 4.4902015 4.130868 3.711082 3.498569 0.0 0.0 0.0 0.0 0.0 0.0 0.0 0.0 0.0 0.0 2.8587527 0.0 0.0 0.0 2.4432359 2.4024537 0.0 2.234025 2.1838644 0.0 2.1134148 2.0100706 0.0 0.0 1.9323767 1.8955991 1.8958561 1.8033808 1.7483634 3.3887713 1.726927 1.7170054 1.631684 1.6666987 0.0 0.0 0.0 0.0 0.0 0.0 0.0 0.0 0.0 0.0 0.0 0.0 0.0 0.0 0.0 0.0 0.0 0.0 0.0 0.0 0.0 0.0 0.0 0.0 0.0 0.0 0.0 0.0 0.0 0.0 0.0 0.0 0.0 0.0 0.0 0.0 0.0 0.0 0.0 0.0 0.0 0.0 0.0 0.0 0.0 0.0 0.0 0.0 0.0 0.0 0.0 0.0 0.0 0.0 0.0 0.0 0.0 0.0 0.0 0.0 0.0 0.0 0.237 5.641 13.798573 0.237 5.641 13.798573 1450437444.943000 toby 1450437444.943000
ODOM 0.237 5.641 13.798573 0.000000 0.000000 0.000000 1450437444.944000 toby 1450437444.944000
ENCODER 2805 2789 1450437444.944000 toby 1450437444.944000
FLASER 180 0.0 0.0 0.0 0.0 0.0 0.0 0.0 0.0 0.0 0.0 0.0 0.0 0.0 0.0 0.0 0.0 0.0 0.0 0.0 0.0 0.0 0.0 0.0 0.0 0.0 0.0 0.0 0.0 0.0 0.0 0.0 0.0 0.0 0.0 0.0 0.0 0.0 0.0 0.0 0.0 0.0 0.0 0.0 0.0 0.0 0.0 0.0 0.0 0.0 0.0 0.0 0.0 0.0 0.0 0.0 0.0 0.0 0.0 0.0 0.0 0.0 0.0 0.0 7.71503 7.8502164 0.0 0.0 0.0 8.964495 9.291755 4.22969 3.9542181 4.354483 4.210542 4.12159 3.8292823 3.7614276 4.00415 4.600895 4.452386 4.3370805 4.198621 4.086326 3.949605 4.314951 4.0827713 0.0 0.0 0.0 0.0 0.0 0.0 0.0 0.0 2.9259348 0.0 0.0 0.0 2.4674964 2.4266295 2.3282738 2.2289245 2.2553835 5.6536264 0.0 2.018364 0.0 1.928331 1.8733406 1.8722621 1.8926555 1.8280847 1.8073586 1.862526 4.0984592 1.7369319 1.7634469 3.4850123 0.0 0.0 0.0 0.0 0.0 0.0 0.0 0.0 0.0 0.0 0.0 0.0 0.0 0.0 0.0 0.0 0.0 0.0 0.0 0.0 0.0 0.0 0.0 0.0 0.0 0.0 0.0 0.0 0.0 0.0 0.0 0.0 0.0 0.0 0.0 0.0 0.0 0.0 0.0 0.0 0.0 0.0 0.0 0.0 0.0 0.0 0.0 0.0 0.0 0.0 0.0 0.0 0.0 0.0 0.0 0.0 0.0 0.0 0.0 0.0 0.0 0.0 0.237 5.641 13.798573 0.237 5.641 13.798573 1450437445.006000 toby 1450437445.006000
ODOM 0.237 5.641 13.798573 0.000000 0.000000 0.000000 1450437445.006000 toby 1450437445.006000
ENCODER 2805 2789 1450437445.006000 toby 1450437445.006000
FLASER 180 0.0 0.0 0.0 0.0 0.0 0.0 0.0 0.0 0.0 0.0 0.0 0.0 0.0 0.0 0.0 0.0 0.0 0.0 0.0 0.0 0.0 0.0 0.0 0.0 0.0 0.0 0.0 0.0 0.0 0.0 0.0 0.0 0.0 0.0 0.0 0.0 0.0 0.0 0.0 0.0 0.0 0.0 0.0 0.0 0.0 0.0 0.0 0.0 0.0 0.0 0.0 0.0 0.0 0.0 0.0 0.0 0.0 0.0 0.0 0.0 0.0 0.0 0.0 8.672003 8.598345 0.0 0.0 0.0 8.746268 9.055778 4.636003 4.399437 3.9454637 4.210542 3.9492948 3.9171097 3.6657987 3.7685518 4.8172636 4.5854225 4.3553333 2.5877337 4.276974 3.572158 3.558181 0.0 0.0 0.0 0.0 0.0 0.0 0.0 0.0 0.0 0.0 0.0 0.0 0.0 2.4735615 2.4033163 2.4027228 0.0 0.0 2.13065 2.121658 1.9998106 1.9663924 0.0 1.9249972 1.8658974 1.8798529 1.8656776 1.7749106 1.7598059 1.7071177 1.7369319 1.6852916 3.5561538 0.0 0.0 0.0 0.0 0.0 0.0 0.0 0.0 0.0 0.0 0.0 0.0 0.0 0.0 0.0 0.0 0.0 0.0 0.0 0.0 0.0 0.0 0.0 0.0 0.0 0.0 0.0 0.0 0.0 0.0 0.0 0.0 0.0 0.0 0.0 0.0 0.0 0.0 0.0 0.0 0.0 0.0 0.0 0.0 0.0 0.0 0.0 0.0 0.0 0.0 0.0 0.0 0.0 0.0 0.0 0.0 0.0 0.0 0.0 0.0 0.0 0.0 0.237 5.641 13.798573 0.237 5.641 13.798573 1450437445.074000 toby 1450437445.074000
ODOM 0.237 5.641 13.798573 0.000000 0.000000 0.000000 1450437445.075000 toby 1450437445.075000
ENCODER 2805 2789 1450437445.075000 toby 1450437445.075000
FLASER 180 0.0 0.0 0.0 0.0 0.0 0.0 0.0 0.0 0.0 0.0 0.0 0.0 0.0 0.0 0.0 0.0 0.0 0.0 0.0 0.0 0.0 0.0 0.0 0.0 0.0 0.0 0.0 0.0 0.0 0.0 0.0 0.0 0.0 0.0 0.0 0.0 0.0 0.0 0.0 0.0 0.0 0.0 0.0 0.0 0.0 0.0 0.0 0.0 0.0 0.0 0.0 0.0 0.0 0.0 0.0 0.0 0.0 0.0 0.0 0.0 0.0 0.0 0.0 0.0 0.0 0.0 0.0 0.0 9.194547 8.758937 4.404733 4.380447 3.6468215 3.9861884 3.9492948 3.887145 3.9468327 4.0676594 4.910139 4.171432 3.8736608 4.402795 4.552789 4.112706 4.137129 4.2055593 0.0 0.0 0.0 0.0 0.0 0.0 0.0 0.0 0.0 0.0 0.0 0.0 2.4614315 2.2796533 2.30601 0.0 0.0 0.0 0.0 2.0672314 1.9364481 1.9461322 1.8944249 1.9019637 1.8798529 1.8151958 1.7684209 1.7754818 1.7499603 1.7313967 1.7207928 3.637001 0.0 0.0 0.0 0.0 0.0 0.0 0.0 0.0 0.0 0.0 0.0 0.0 0.0 0.0 0.0 0.0 0.0 0.0 0.0 0.0 0.0 0.0 0.0 0.0 0.0 0.0 0.0 0.0 0.0 0.0 0.0 0.0 0.0 0.0 0.0 0.0 0.0 0.0 0.0 0.0 0.0 0.0 0.0 0.0 0.0 0.0 0.0 0.0 0.0 0.0 0.0 0.0 0.0 0.0 0.0 0.0 0.0 0.0 0.0 0.0 0.0 0.0 0.237 5.641 13.798573 0.237 5.641 13.798573 1450437445.139000 toby 1450437445.139000
ODOM 0.237 5.641 13.798573 0.000000 0.000000 0.000000 1450437445.140000 toby 1450437445.140000
ENCODER 2805 2789 1450437445.140000 toby 1450437445.140000
FLASER 180 0.0 0.0 0.0 0.0 0.0 0.0 0.0 0.0 0.0 0.0 0.0 0.0 0.0 0.0 0.0 0.0 0.0 0.0 0.0 0.0 0.0 0.0 0.0 0.0 0.0 0.0 0.0 0.0 0.0 0.0 0.0 0.0 0.0 0.0 0.0 0.0 0.0 0.0 0.0 0.0 0.0 0.0 0.0 0.0 0.0 0.0 0.0 0.0 0.0 0.0 0.0 0.0 0.0 0.0 0.0 0.0 0.0 0.0 0.0 0.0 0.0 0.0 0.0 7.8995447 9.06334 0.0 0.0 0.0 8.675319 9.372906 4.3336554 4.156782 4.006292 4.2627172 4.0105324 3.977039 3.8851259 3.8392313 4.840738 4.824458 4.1601424 4.252216 0.0 4.181249 4.3903 4.388462 0.0 0.0 0.0 0.0 0.0 0.0 0.0 0.0 0.0 0.0 0.0 0.0 0.0 2.3921664 2.2450316 2.171799 2.1398818 0.0 0.0 2.0039594 1.9725002 1.924139 0.0 1.9199969 1.8894548 1.8463441 1.8441331 1.8008227 1.7422706 1.7369319 1.6144546 3.1216002 0.0 0.0 0.0 0.0 0.0 0.0 0.0 0.0 0.0 0.0 0.0 0.0 0.0 0.0 0.0 0.0 0.0 0.0 0.0 0.0 0.0 0.0 0.0 0.0 0.0 0.0 0.0 0.0 0.0 0.0 0.0 0.0 0.0 0.0 0.0 0.0 0.0 0.0 0.0 0.0 0.0 0.0 0.0 0.0 0.0 0.0 0.0 0.0 0.0 0.0 0.0 0.0 0.0 0.0 0.0 0.0 0.0 0.0 0.0 0.0 0.0 0.0 0.237 5.641 13.798573 0.237 5.641 13.798573 1450437445.199000 toby 1450437445.199000
ODOM 0.237 5.641 13.798573 0.000000 0.000000 0.000000 1450437445.199000 toby 1450437445.199000
ENCODER 2805 2789 1450437445.199000 toby 1450437445.199000
FLASER 180 0.0 0.0 0.0 0.0 0.0 0.0 0.0 0.0 0.0 0.0 0.0 0.0 0.0 0.0 0.0 0.0 0.0 0.0 0.0 0.0 0.0 0.0 0.0 0.0 0.0 0.0 0.0 0.0 0.0 0.0 0.0 0.0 0.0 0.0 0.0 0.0 0.0 0.0 0.0 0.0 0.0 0.0 0.0 0.0 0.0 0.0 0.0 0.0 0.0 0.0 0.0 0.0 0.0 0.0 0.0 0.0 0.0 0.0 0.0 0.0 0.0 0.0 0.0 8.225938 8.793779 0.0 0.0 0.0 9.039746 9.456191 4.575534 4.156782 4.4884768 3.896447 4.204624 3.8437479 3.9911027 3.883278 4.840738 4.1446924 4.1251445 5.1896243 5.058533 3.6496606 3.9894464 3.9397817 0.0 0.0 0.0 0.0 0.0 0.0 0.0 0.0 0.0 0.0 0.0 0.0 2.5038872 2.4024537 2.3324342 2.28401 2.2604885 0.0 0.0 2.0619032 0.0 1.9382647 1.9037168 1.8786267 1.8894548 1.8248626 1.8095218 1.7420259 3.8472338 1.7778921 1.7009271 1.6510298 0.0 0.0 0.0 0.0 0.0 0.0 0.0 0.0 0.0 0.0 0.0 0.0 0.0 0.0 0.0 0.0 0.0 0.0 0.0 0.0 0.0 0.0 0.0 0.0 0.0 0.0 0.0 0.0 0.0 0.0 0.0 0.0 0.0 0.0 0.0 0.0 0.0 0.0 0.0 0.0 0.0 0.0 0.0 0.0 0.0 0.0 0.0 0.0 0.0 0.0 0.0 0.0 0.0 0.0 0.0 0.0 0.0 0.0 0.0 0.0 0.0 0.0 0.237 5.641 13.798573 0.237 5.641 13.798573 1450437445.257000 toby 1450437445.257000
ODOM 0.237 5.641 13.798573 0.000000 0.000000 0.000000 1450437445.258000 toby 1450437445.258000
ENCODER 2805 2789 1450437445.258000 toby 1450437445.258000
FLASER 180 0.0 0.0 0.0 0.0 0.0 0.0 0.0 0.0 0.0 0.0 0.0 0.0 0.0 0.0 0.0 0.0 0.0 0.0 0.0 0.0 0.0 0.0 0.0 0.0 0.0 0.0 0.0 0.0 0.0 0.0 0.0 0.0 0.0 0.0 0.0 0.0 0.0 0.0 0.0 0.0 0.0 0.0 0.0 0.0 0.0 0.0 0.0 0.0 0.0 0.0 0.0 0.0 0.0 0.0 0.0 0.0 0.0 0.0 0.0 0.0 0.0 0.0 0.0 0.0 0.0 0.0 0.0 0.0 9.039746 8.28271 4.179829 3.7706444 4.5661354 3.8108797 4.2222686 3.9315755 3.507831 4.0840487 4.982602 4.591064 4.075456 4.6637855 4.3168535 0.0 4.154208 4.153328 0.0 0.0 0.0 0.0 0.0 0.0 0.0 0.0 2.8984983 0.0 0.0 0.0 2.4432359 2.387098 2.2551947 2.1901608 2.2410893 0.0 2.1235685 2.0630825 0.0 1.9297334 0.0 1.8690797 1.9001238 1.8345293 1.7262384 1.7613648 1.7257928 1.6660819 1.6852916 1.6720376 0.0 0.0 0.0 0.0 0.0 0.0 0.0 0.0 0.0 0.0 0.0 0.0 0.0 0.0 0.0 0.0 0.0 0.0 0.0 0.0 0.0 0.0 0.0 0.0 0.0 0.0 0.0 0.0 0.0 0.0 0.0 0.0 0.0 0.0 0.0 0.0 0.0 0.0 0.0 0.0 0.0 0.0 0.0 0.0 0.0 0.0 0.0 0.0 0.0 0.0 0.0 0.0 0.0 0.0 0.0 0.0 0.0 0.0 0.0 0.0 0.0 0.0 0.237 5.641 13.798573 0.237 5.641 13.798573 1450437445.321000 toby 1450437445.321000
ODOM 0.237 5.641 13.798573 0.000000 0.000000 0.000000 1450437445.321000 toby 1450437445.321000
ENCODER 2805 2789 1450437445.321000 toby 1450437445.321000
FLASER 180 0.0 0.0 0.0 0.0 0.0 0.0 0.0 0.0 0.0 0.0 0.0 0.0 0.0 0.0 0.0 0.0 0.0 0.0 0.0 0.0 0.0 0.0 0.0 0.0 0.0 0.0 0.0 0.0 0.0 0.0 0.0 0.0 0.0 0.0 0.0 0.0 0.0 0.0 0.0 0.0 0.0 0.0 0.0 0.0 0.0 0.0 0.0 0.0 0.0 0.0 0.0 0.0 0.0 0.0 0.0 0.0 0.0 0.0 0.0 0.0 0.0 0.0 0.0 8.356407 0.0 0.0 0.0 0.0 8.675319 9.055778 9.049131 3.8529363 4.1022806 3.8818378 4.2918096 3.6928911 3.874724 3.7685518 4.910139 4.801063 4.043007 4.47772 4.136762 4.0634246 3.942228 3.9247215 0.0 0.0 0.0 0.0 0.0 0.0 0.0 0.0 0.0 0.0 0.0 0.0 2.5091453 2.398248 2.2713377 2.352357 0.0 0.0 2.1343281 2.0112202 1.9218491 1.8660897 0.0 1.8690797 1.8894548 1.8280847 1.7803186 1.7903155 3.1849234 1.7446811 1.694947 1.53777 0.0 0.0 0.0 0.0 0.0 0.0 0.0 0.0 0.0 0.0 0.0 0.0 0.0 0.0 0.0 0.0 0.0 0.0 0.0 0.0 0.0 0.0 0.0 0.0 0.0 0.0 0.0 0.0 0.0 0.0 0.0 0.0 0.0 0.0 0.0 0.0 0.0 0.0 0.0 0.0 0.0 0.0 0.0 0.0 0.0 0.0 0.0 0.0 0.0 0.0 0.0 0.0 0.0 0.0 0.0 0.0 0.0 0.0 0.0 0.0 0.0 0.0 0.237 5.641 13.798573 0.237 5.641 13.798573 1450437445.392000 toby 1450437445.392000
ODOM 0.237 5.641 13.798573 0.000000 0.000000 0.000000 1450437445.393000 toby 1450437445.393000
ENCODER 2805 2789 1450437445.393000 toby 1450437445.393000
FLASER 180 0.0 0.0 0.0 0.0 0.0 0.0 0.0 0.0 0.0 0.0 0.0 0.0 0.0 0.0 0.0 0.0 0.0 0.0 0.0 0.0 0.0 0.0 0.0 0.0 0.0 0.0 0.0 0.0 0.0 0.0 0.0 0.0 0.0 0.0 0.0 0.0 0.0 0.0 0.0 0.0 0.0 0.0 0.0 0.0 0.0 0.0 0.0 0.0 0.0 0.0 0.0 0.0 0.0 0.0 0.0 0.0 0.0 0.0 0.0 0.0 0.0 0.0 0.0 9.170612 8.862968 0.0 0.0 0.0 8.818294 8.156713 4.179829 3.9246774 3.8189306 3.8108797 4.1548038 3.7879515 3.4787104 4.05127 4.4988346 4.319935 4.469921 2.4269485 3.989489 0.0 0.0 4.408454 0.0 0.0 0.0 0.0 0.0 0.0 0.0 0.0 0.0 0.0 0.0 0.0 2.491757 2.3742542 2.2635965 2.294211 0.0 0.0 2.098922 2.0784898 1.9579277 1.9216933 0.0 1.8955991 1.8830535 1.8248626 1.795461 1.7754818 1.7071177 1.772357 1.6294502 3.4282818 0.0 0.0 0.0 0.0 0.0 0.0 0.0 0.0 0.0 0.0 0.0 0.0 0.0 0.0 0.0 0.0 0.0 0.0 0.0 0.0 0.0 0.0 0.0 0.0 0.0 0.0 0.0 0.0 0.0 0.0 0.0 0.0 0.0 0.0 0.0 0.0 0.0 0.0 0.0 0.0 0.0 0.0 0.0 0.0 0.0 0.0 0.0 0.0 0.0 0.0 0.0 0.0 0.0 0.0 0.0 0.0 0.0 0.0 0.0 0.0 0.0 0.0 0.237 5.641 13.798573 0.237 5.641 13.798573 1450437445.456000 toby 1450437445.456000
ODOM 0.237 5.641 13.798573 0.000000 0.000000 0.000000 1450437445.456000 toby 1450437445.456000
ENCODER 2805 2789 1450437445.456000 toby 1450437445.456000
FLASER 180 0.0 0.0 0.0 0.0 0.0 0.0 0.0 0.0 0.0 0.0 0.0 0.0 0.0 0.0 0.0 0.0 0.0 0.0 0.0 0.0 0.0 0.0 0.0 0.0 0.0 0.0 0.0 0.0 0.0 0.0 0.0 0.0 0.0 0.0 0.0 0.0 0.0 0.0 0.0 0.0 0.0 0.0 0.0 0.0 0.0 0.0 0.0 0.0 0.0 0.0 0.0 0.0 0.0 0.0 0.0 0.0 0.0 0.0 0.0 0.0 0.0 0.0 0.0 8.287425 8.3340025 0.0 0.0 0.0 8.818294 9.625968 4.0992026 4.092426 20.208643 4.0007977 3.9191954 3.7600532 3.7441669 4.200824 4.55905 3.9456193 3.829043 4.5788426 4.276974 4.0311995 0.0 3.983946 0.0 0.0 0.0 0.0 3.3360312 0.0 0.0 0.0 0.0 0.0 0.0 0.9533906 2.4432359 2.321212 0.0 2.2095425 2.2615626 0.0 2.0967565 2.0433748 2.0098162 1.952909 1.9144549 1.8849913 1.9001238 1.8431218 1.8041137 1.7950352 1.7334825 1.7502164 1.738443 0.0 0.0 0.0 0.0 0.0 0.0 0.0 0.0 0.0 0.0 0.0 0.0 0.0 0.0 0.0 0.0 0.0 0.0 0.0 0.0 0.0 0.0 0.0 0.0 0.0 0.0 0.0 0.0 0.0 0.0 0.0 0.0 0.0 0.0 0.0 0.0 0.0 0.0 0.0 0.0 0.0 0.0 0.0 0.0 0.0 0.0 0.0 0.0 0.0 0.0 0.0 0.0 0.0 0.0 0.0 0.0 0.0 0.0 0.0 0.0 0.0 0.0 0.0 0.237 5.641 13.798573 0.237 5.641 13.798573 1450437445.521000 toby 1450437445.521000
ODOM 0.237 5.641 13.798573 0.000000 0.000000 0.000000 1450437445.521000 toby 1450437445.521000
ENCODER 2805 2789 1450437445.521000 toby 1450437445.521000
FLASER 180 0.0 0.0 0.0 0.0 0.0 0.0 0.0 0.0 0.0 0.0 0.0 0.0 0.0 0.0 0.0 0.0 0.0 0.0 0.0 0.0 0.0 0.0 0.0 0.0 0.0 0.0 0.0 0.0 0.0 0.0 0.0 0.0 0.0 0.0 0.0 0.0 0.0 0.0 0.0 0.0 0.0 0.0 0.0 0.0 0.0 0.0 0.0 0.0 0.0 0.0 0.0 0.0 0.0 0.0 0.0 0.0 0.0 0.0 0.0 0.0 0.0 0.0 0.0 8.225938 0.0 0.0 0.0 0.0 9.274097 8.414046 4.0366116 4.1399016 3.9601462 4.1938457 4.057239 4.039035 3.9643307 3.9887853 4.479443 4.392471 4.1251445 4.1136775 4.4867883 4.628688 0.0 0.0 0.0 0.0 0.0 0.0 0.0 2.9264624 0.0 0.0 0.0 0.0 0.0 0.0 2.4674964 2.420548 2.3120062 2.18608 6.2328997 2.117282 2.1421778 2.0796785 2.0654676 1.9717371 1.9892722 1.8987814 1.8894548 1.8463441 1.7889714 1.7917695 1.7697339 1.7668217 1.7128003 3.928949 0.0 0.0 0.0 0.0 0.0 0.0 0.0 0.0 0.0 0.0 0.0 0.0 0.0 0.0 0.0 0.0 0.0 0.0 0.0 0.0 0.0 0.0 0.0 0.0 0.0 0.0 0.0 0.0 0.0 0.0 0.0 0.0 0.0 0.0 0.0 0.0 0.0 0.0 0.0 0.0 0.0 0.0 0.0 0.0 0.0 0.0 0.0 0.0 0.0 0.0 0.0 0.0 0.0 0.0 0.0 0.0 0.0 0.0 0.0 0.0 0.0 0.0 0.237 5.641 13.798573 0.237 5.641 13.798573 1450437445.591000 toby 1450437445.591000
ODOM 0.237 5.641 13.798573 0.000000 0.000000 0.000000 1450437445.591000 toby 1450437445.591000
ENCODER 2805 2789 1450437445.591000 toby 1450437445.591000
FLASER 180 0.0 0.0 0.0 0.0 0.0 0.0 0.0 0.0 0.0 0.0 0.0 0.0 0.0 0.0 0.0 0.0 0.0 0.0 0.0 0.0 0.0 0.0 0.0 0.0 0.0 0.0 0.0 0.0 0.0 0.0 0.0 0.0 0.0 0.0 0.0 0.0 0.0 0.0 0.0 0.0 0.0 0.0 0.0 0.0 0.0 0.0 0.0 0.0 0.0 0.0 0.0 0.0 0.0 0.0 0.0 0.0 0.0 0.0 0.0 0.0 0.0 0.0 0.0 8.107433 8.272625 0.0 0.0 0.0 8.818294 9.291755 4.0525246 4.2738895 3.739502 3.8254888 4.25652 3.887145 3.7193289 4.05127 4.772357 4.6474695 5.025444 3.8335671 3.8171506 0.0 3.1245134 0.0 0.0 0.0 0.0 0.0 0.0 0.0 0.0 0.0 0.0 0.0 0.0 0.0 2.4796267 2.3759482 2.3075418 2.2095425 2.1981645 2.103914 2.1142466 2.0672314 0.0 1.9131604 1.9163313 1.9337869 1.8926555 1.8142956 1.7835634 1.6924247 1.1932889 1.7125772 1.6808244 1.6555377 0.0 0.0 0.0 0.0 0.0 0.0 0.0 0.0 0.0 0.0 0.0 0.0 0.0 0.0 0.0 0.0 0.0 0.0 0.0 0.0 0.0 0.0 0.0 0.0 0.0 0.0 0.0 0.0 0.0 0.0 0.0 0.0 0.0 0.0 0.0 0.0 0.0 0.0 0.0 0.0 0.0 0.0 0.0 0.0 0.0 0.0 0.0 0.0 0.0 0.0 0.0 0.0 0.0 0.0 0.0 0.0 0.0 0.0 0.0 0.0 0.0 0.0 0.237 5.641 13.798573 0.237 5.641 13.798573 1450437445.676000 toby 1450437445.676000
ODOM 0.237 5.641 13.798573 0.000000 0.000000 0.000000 1450437445.678000 toby 1450437445.678000
ENCODER 2805 2789 1450437445.678000 toby 1450437445.678000
FLASER 180 0.0 0.0 0.0 0.0 0.0 0.0 0.0 0.0 0.0 0.0 0.0 0.0 0.0 0.0 0.0 0.0 0.0 0.0 0.0 0.0 0.0 0.0 0.0 0.0 0.0 0.0 0.0 0.0 0.0 0.0 0.0 0.0 0.0 0.0 0.0 0.0 0.0 0.0 0.0 0.0 0.0 0.0 0.0 0.0 0.0 0.0 0.0 0.0 0.0 0.0 0.0 0.0 0.0 0.0 0.0 0.0 0.0 0.0 0.0 0.0 0.0 0.0 0.0 7.7686925 8.150986 0.0 0.0 0.0 8.606518 9.985806 4.1957417 4.30976 3.9931383 4.0007977 4.1548038 3.887145 3.9952295 4.1332173 5.0060763 4.387073 3.963911 4.1136775 4.195896 0.0 0.0 0.0 0.0 0.0 0.0 0.0 0.0 0.0 0.0 0.0 0.0 0.0 0.0 0.0 2.4614315 2.3810163 2.39436 2.3780277 0.0 0.0 0.0 2.0878198 1.980245 1.9516859 1.890208 1.8786267 1.8926555 1.8266964 1.8244277 1.7717996 1.8006274 1.7170054 1.6082306 3.6115816 0.0 0.0 0.0 0.0 0.0 0.0 0.0 0.0 0.0 0.0 0.0 0.0 0.0 0.0 0.0 0.0 0.0 0.0 0.0 0.0 0.0 0.0 0.0 0.0 0.0 0.0 0.0 0.0 0.0 0.0 0.0 0.0 0.0 0.0 0.0 0.0 0.0 0.0 0.0 0.0 0.0 0.0 0.0 0.0 0.0 0.0 0.0 0.0 0.0 0.0 0.0 0.0 0.0 0.0 0.0 0.0 0.0 0.0 0.0 0.0 0.0 0.0 0.237 5.641 13.798573 0.237 5.641 13.798573 1450437445.724000 toby 1450437445.724000
ODOM 0.237 5.641 13.798573 0.000000 0.000000 0.000000 1450437445.725000 toby 1450437445.725000
ENCODER 2805 2789 1450437445.725000 toby 1450437445.725000
FLASER 180 0.0 0.0 0.0 0.0 0.0 0.0 0.0 0.0 0.0 0.0 0.0 0.0 0.0 0.0 0.0 0.0 0.0 0.0 0.0 0.0 0.0 0.0 0.0 0.0 0.0 0.0 0.0 0.0 0.0 0.0 0.0 0.0 0.0 0.0 0.0 0.0 0.0 0.0 0.0 0.0 0.0 0.0 0.0 0.0 0.0 0.0 0.0 0.0 0.0 0.0 0.0 0.0 0.0 0.0 0.0 0.0 0.0 0.0 0.0 0.0 0.0 0.0 0.0 8.225938 8.785956 0.0 0.0 0.0 9.1171465 9.132656 0.0 4.108251 3.909025 3.8818378 3.777 4.1857586 4.2216907 4.0195155 4.7499037 4.80697 4.245816 4.0007353 4.0390944 5.2487164 0.0 4.036814 0.0 0.0 0.0 0.0 0.0 0.0 0.0 0.0 0.0 0.0 0.0 0.0 2.4614315 2.3647983 2.2967556 2.2187233 2.2308793 2.1440182 2.1227758 2.0392258 2.09078 2.0837107 0.0 1.9581846 1.8958561 1.8248626 1.7511153 1.7667944 1.7433635 1.6760452 1.7031609 1.6875931 0.0 0.0 0.0 0.0 0.0 0.0 0.0 0.0 0.0 0.0 0.0 0.0 0.0 0.0 0.0 0.0 0.0 0.0 0.0 0.0 0.0 0.0 0.0 0.0 0.0 0.0 0.0 0.0 0.0 0.0 0.0 0.0 0.0 0.0 0.0 0.0 0.0 0.0 0.0 0.0 0.0 0.0 0.0 0.0 0.0 0.0 0.0 0.0 0.0 0.0 0.0 0.0 0.0 0.0 0.0 0.0 0.0 0.0 0.0 0.0 0.0 0.0 0.237 5.641 13.798573 0.237 5.641 13.798573 1450437445.785000 toby 1450437445.785000
ODOM 0.237 5.641 13.798573 0.000000 0.000000 0.000000 1450437445.785000 toby 1450437445.785000
ENCODER 2805 2789 1450437445.785000 toby 1450437445.785000
FLASER 180 0.0 0.0 0.0 0.0 0.0 0.0 0.0 0.0 0.0 0.0 0.0 0.0 0.0 0.0 0.0 0.0 0.0 0.0 0.0 0.0 0.0 0.0 0.0 0.0 0.0 0.0 0.0 0.0 0.0 0.0 0.0 0.0 0.0 0.0 0.0 0.0 0.0 0.0 0.0 0.0 0.0 0.0 0.0 0.0 0.0 0.0 0.0 0.0 0.0 0.0 0.0 0.0 0.0 0.0 0.0 0.0 0.0 0.0 0.0 0.0 0.0 0.0 0.0 7.471314 0.0 0.0 0.0 0.0 8.964495 9.540545 4.1469417 4.04495 3.9758778 3.8818378 4.2741647 3.8582137 3.299682 4.1168275 4.5192466 4.3128195 4.6767864 4.18143 4.054047 3.5590732 3.472648 4.017535 0.0 0.0 0.0 0.0 0.0 0.0 0.0 0.0 0.0 0.0 0.0 0.0 2.4553661 2.3681765 2.3075418 0.0 0.0 2.13065 2.1209111 2.0505002 0.0 0.0 1.8670152 1.8521074 1.8926555 1.857821 1.8041137 1.7710869 4.4688253 1.6992929 1.7059646 3.139152 0.0 0.0 0.0 0.0 0.0 0.0 0.0 0.0 0.0 0.0 0.0 0.0 0.0 0.0 0.0 0.0 0.0 0.0 0.0 0.0 0.0 0.0 0.0 0.0 0.0 0.0 0.0 0.0 0.0 0.0 0.0 0.0 0.0 0.0 0.0 0.0 0.0 0.0 0.0 0.0 0.0 0.0 0.0 0.0 0.0 0.0 0.0 0.0 0.0 0.0 0.0 0.0 0.0 0.0 0.0 0.0 0.0 0.0 0.0 0.0 0.0 0.0 0.237 5.641 13.798573 0.237 5.641 13.798573 1450437445.854000 toby 1450437445.854000
ODOM 0.237 5.641 13.798573 0.000000 0.000000 0.000000 1450437445.855000 toby 1450437445.855000
ENCODER 2805 2789 1450437445.855000 toby 1450437445.855000
FLASER 180 0.0 0.0 0.0 0.0 0.0 0.0 0.0 0.0 0.0 0.0 0.0 0.0 0.0 0.0 0.0 0.0 0.0 0.0 0.0 0.0 0.0 0.0 0.0 0.0 0.0 0.0 0.0 0.0 0.0 0.0 0.0 0.0 0.0 0.0 0.0 0.0 0.0 0.0 0.0 0.0 0.0 0.0 0.0 0.0 0.0 0.0 0.0 0.0 0.0 0.0 0.0 0.0 0.0 0.0 0.0 0.0 0.0 0.0 0.0 0.0 0.0 0.0 0.0 9.41782 0.0 0.0 0.0 0.0 8.818294 9.211672 3.819133 3.999584 4.318825 4.063408 4.364464 3.96154 3.6925638 3.7552354 4.55905 4.7563076 4.026782 4.164239 4.143041 0.0 3.7794755 3.8218658 0.0 0.0 0.0 0.0 0.0 0.0 0.0 0.0 0.0 0.0 0.0 0.0 2.4674964 2.4387932 0.0 0.0 0.0 0.0 0.0 2.0475237 1.9583466 1.92588 1.9218345 1.8658974 1.8958561 1.8130476 1.7684209 1.684002 1.6576837 1.6882225 1.6037632 1.636379 0.0 0.0 0.0 0.0 0.0 0.0 0.0 0.0 0.0 0.0 0.0 0.0 0.0 0.0 0.0 0.0 0.0 0.0 0.0 0.0 0.0 0.0 0.0 0.0 0.0 0.0 0.0 0.0 0.0 0.0 0.0 0.0 0.0 0.0 0.0 0.0 0.0 0.0 0.0 0.0 0.0 0.0 0.0 0.0 0.0 0.0 0.0 0.0 0.0 0.0 0.0 0.0 0.0 0.0 0.0 0.0 0.0 0.0 0.0 0.0 0.0 0.0 0.237 5.641 13.798573 0.237 5.641 13.798573 1450437445.930000 toby 1450437445.930000
ODOM 0.237 5.641 13.798573 0.000000 0.000000 0.000000 1450437445.931000 toby 1450437445.931000
ENCODER 2805 2789 1450437445.931000 toby 1450437445.931000
FLASER 180 0.0 0.0 0.0 0.0 0.0 0.0 0.0 0.0 0.0 0.0 0.0 0.0 0.0 0.0 0.0 0.0 0.0 0.0 0.0 0.0 0.0 0.0 0.0 0.0 0.0 0.0 0.0 0.0 0.0 0.0 0.0 0.0 0.0 0.0 0.0 0.0 0.0 0.0 0.0 0.0 0.0 0.0 0.0 0.0 0.0 0.0 0.0 0.0 0.0 0.0 0.0 0.0 0.0 0.0 0.0 0.0 0.0 0.0 0.0 0.0 0.0 0.0 0.0 0.0 9.204463 0.0 0.0 0.0 9.274097 9.132656 4.162855 4.2232485 3.9014153 3.9402742 4.204624 3.8158495 4.122945 4.0195155 4.6427402 4.4257255 4.5510445 4.3806415 4.674775 0.0 0.0 4.2562137 0.0 0.0 0.0 0.0 0.0 0.0 0.0 0.0 0.0 0.0 2.6622245 0.0 2.4735615 2.3801618 2.3213627 2.2391255 2.221658 2.0422156 0.0 2.0761397 1.999015 1.9705024 1.9534609 1.8987814 1.906525 1.818418 1.7651762 1.7093425 1.701625 1.7336109 1.6562947 1.6296171 0.0 0.0 0.0 0.0 0.0 0.0 0.0 0.0 0.0 0.0 0.0 0.0 0.0 0.0 0.0 0.0 0.0 0.0 0.0 0.0 0.0 0.0 0.0 0.0 0.0 0.0 0.0 0.0 0.0 0.0 0.0 0.0 0.0 0.0 0.0 0.0 0.0 0.0 0.0 0.0 0.0 0.0 0.0 0.0 0.0 0.0 0.0 0.0 0.0 0.0 0.0 0.0 0.0 0.0 0.0 0.0 0.0 0.0 0.0 0.0 0.0 0.0 0.237 5.641 13.798573 0.237 5.641 13.798573 1450437446.000000 toby 1450437446.000000
ODOM 0.237 5.641 13.798573 0.000000 0.000000 0.000000 1450437446.000000 toby 1450437446.000000
ENCODER 2805 2789 1450437446.001000 toby 1450437446.001000
FLASER 180 0.0 0.0 0.0 0.0 0.0 0.0 0.0 0.0 0.0 0.0 0.0 0.0 0.0 0.0 0.0 0.0 0.0 0.0 0.0 0.0 0.0 0.0 0.0 0.0 0.0 0.0 0.0 0.0 0.0 0.0 0.0 0.0 0.0 0.0 0.0 0.0 0.0 0.0 0.0 0.0 0.0 0.0 0.0 0.0 0.0 0.0 0.0 0.0 0.0 0.0 0.0 0.0 0.0 0.0 0.0 0.0 0.0 0.0 0.0 0.0 0.0 0.0 0.0 8.048182 8.460107 0.0 0.0 0.0 8.404416 9.132656 4.162855 3.8814216 3.9307806 3.896447 4.364464 3.977039 3.9303975 4.149606 4.886665 4.965845 4.612901 4.7507515 4.7389684 4.4176393 0.0 0.0 0.0 0.0 0.0 0.0 0.0 0.0 0.0 0.0 2.7782285 0.87313724 0.0 0.0 2.5412889 2.4248993 0.0 0.0 0.0 5.3872952 2.1134148 2.0112202 2.070967 2.0357134 0.0 1.9157538 1.9001238 1.7934252 1.7922162 1.7526774 1.703822 1.7524303 1.7168514 1.6185024 0.0 0.0 0.0 0.0 0.0 0.0 0.0 0.0 0.0 0.0 0.0 0.0 0.0 0.0 0.0 0.0 0.0 0.0 0.0 0.0 0.0 0.0 0.0 0.0 0.0 0.0 0.0 0.0 0.0 0.0 0.0 0.0 0.0 0.0 0.0 0.0 0.0 0.0 0.0 0.0 0.0 0.0 0.0 0.0 0.0 0.0 0.0 0.0 0.0 0.0 0.0 0.0 0.0 0.0 0.0 0.0 0.0 0.0 0.0 0.0 0.0 0.0 0.237 5.641 13.798573 0.237 5.641 13.798573 1450437446.063000 toby 1450437446.063000
ODOM 0.237 5.641 13.798573 0.000000 0.000000 0.000000 1450437446.064000 toby 1450437446.064000
ENCODER 2805 2789 1450437446.064000 toby 1450437446.064000
FLASER 180 0.0 0.0 0.0 0.0 0.0 0.0 0.0 0.0 0.0 0.0 0.0 0.0 0.0 0.0 0.0 0.0 0.0 0.0 0.0 0.0 0.0 0.0 0.0 0.0 0.0 0.0 0.0 0.0 0.0 0.0 0.0 0.0 0.0 0.0 0.0 0.0 0.0 0.0 0.0 0.0 0.0 0.0 0.0 0.0 0.0 0.0 0.0 0.0 0.0 0.0 0.0 0.0 0.0 0.0 0.0 0.0 0.0 0.0 0.0 0.0 0.0 0.0 0.0 7.991166 8.396497 0.0 0.0 0.0 8.275415 9.132656 3.819133 4.2570095 4.2842155 4.01645 4.364464 3.8582137 3.9777157 3.9273248 4.600895 4.6551375 8.1184635 4.960076 4.7843604 4.62356 4.021595 4.0199113 0.0 0.0 0.0 15.162629 17.254406 0.0 0.0 0.0 0.0 0.0 0.0 0.0 2.408867 2.385396 2.2611706 0.0 0.0 2.1388764 6.262902 0.0 1.999015 0.0 1.9039128 1.8690797 1.8926555 1.8130476 1.7630129 1.7609484 3.8569434 1.8277085 1.6707747 3.5884066 0.0 0.0 0.0 0.0 0.0 0.0 0.0 0.0 0.0 0.0 0.0 0.0 0.0 0.0 0.0 0.0 0.0 0.0 0.0 0.0 0.0 0.0 0.0 0.0 0.0 0.0 0.0 0.0 0.0 0.0 0.0 0.0 0.0 0.0 0.0 0.0 0.0 0.0 0.0 0.0 0.0 0.0 0.0 0.0 0.0 0.0 0.0 0.0 0.0 0.0 0.0 0.0 0.0 0.0 0.0 0.0 0.0 0.0 0.0 0.0 0.0 0.0 0.237 5.641 13.798573 0.237 5.641 13.798573 1450437446.131000 toby 1450437446.131000
ODOM 0.237 5.641 13.798573 0.000000 0.000000 0.000000 1450437446.131000 toby 1450437446.131000
ENCODER 2805 2789 1450437446.131000 toby 1450437446.131000
FLASER 180 0.0 0.0 0.0 0.0 0.0 0.0 0.0 0.0 0.0 0.0 0.0 0.0 0.0 0.0 0.0 0.0 0.0 0.0 0.0 0.0 0.0 0.0 0.0 0.0 0.0 0.0 0.0 0.0 0.0 0.0 0.0 0.0 0.0 0.0 0.0 0.0 0.0 0.0 0.0 0.0 0.0 0.0 0.0 0.0 0.0 0.0 0.0 0.0 0.0 0.0 0.0 0.0 0.0 0.0 0.0 0.0 0.0 0.0 0.0 0.0 0.0 0.0 0.0 8.878825 2.9107933 0.0 0.0 0.0 8.890319 8.904153 4.179829 4.240129 4.1478753 3.9402742 4.616679 3.746621 3.8334696 3.9887853 4.55905 4.5854225 3.8878577 4.5171576 4.412058 3.7583652 4.053744 4.003844 0.0 0.0 0.0 0.0 0.0 0.0 0.0 0.0 0.0 0.0 0.0 0.0 2.5099523 2.4146128 0.0 2.2687085 2.2451735 0.0 2.1175363 2.0599706 1.994844 0.0 1.9416155 1.8722621 1.9001238 1.8001587 1.7543601 1.837489 0.0 1.701507 1.6570556 1.6713154 0.0 0.0 0.0 0.0 0.0 0.0 0.0 0.0 0.0 0.0 0.0 0.0 0.0 0.0 0.0 0.0 0.0 0.0 0.0 0.0 0.0 0.0 0.0 0.0 0.0 0.0 0.0 0.0 0.0 0.0 0.0 0.0 0.0 0.0 0.0 0.0 0.0 0.0 0.0 0.0 0.0 0.0 0.0 0.0 0.0 0.0 0.0 0.0 0.0 0.0 0.0 0.0 0.0 0.0 0.0 0.0 0.0 0.0 0.0 0.0 0.0 0.0 0.237 5.641 13.798573 0.237 5.641 13.798573 1450437446.201000 toby 1450437446.201000
ODOM 0.237 5.641 13.798573 0.000000 0.000000 0.000000 1450437446.202000 toby 1450437446.202000
ENCODER 2805 2789 1450437446.202000 toby 1450437446.202000
FLASER 180 0.0 0.0 0.0 0.0 0.0 0.0 0.0 0.0 0.0 0.0 0.0 0.0 0.0 0.0 0.0 0.0 0.0 0.0 0.0 0.0 0.0 0.0 0.0 0.0 0.0 0.0 0.0 0.0 0.0 0.0 0.0 0.0 0.0 0.0 0.0 0.0 0.0 0.0 0.0 0.0 0.0 0.0 0.0 0.0 0.0 0.0 0.0 0.0 0.0 0.0 0.0 0.0 0.0 0.0 0.0 0.0 0.0 0.0 0.0 0.0 0.0 0.0 0.0 7.9341497 8.100182 0.0 0.0 0.0 8.890319 9.132656 4.1151156 4.4922786 3.9758778 3.896447 4.188017 3.96154 4.1043353 4.1168275 4.6427402 4.7786856 4.3735867 4.2550573 4.5486474 4.214321 4.011024 0.0 0.0 0.0 0.0 0.0 1.1220032 3.0703707 0.0 0.0 0.0 0.0 2.6856549 2.657138 2.4432359 2.4024537 0.0 0.0 2.2502785 0.0 2.1071613 2.0392258 2.0104856 0.0 1.9081298 1.9157538 1.9001238 1.8216403 1.7835634 1.7950352 3.794637 1.701507 1.6216325 1.5954729 0.0 0.0 0.0 0.0 0.0 0.0 0.0 0.0 0.0 0.0 0.0 0.0 0.0 0.0 0.0 0.0 0.0 0.0 0.0 0.0 0.0 0.0 0.0 0.0 0.0 0.0 0.0 0.0 0.0 0.0 0.0 0.0 0.0 0.0 0.0 0.0 0.0 0.0 0.0 0.0 0.0 0.0 0.0 0.0 0.0 0.0 0.0 0.0 0.0 0.0 0.0 0.0 0.0 0.0 0.0 0.0 0.0 0.0 0.0 0.0 0.0 0.0 0.237 5.641 13.798573 0.237 5.641 13.798573 1450437446.280000 toby 1450437446.280000
ODOM 0.237 5.641 13.798573 0.000000 0.000000 0.000000 1450437446.280000 toby 1450437446.280000
ENCODER 2805 2789 1450437446.280000 toby 1450437446.280000
FLASER 180 0.0 0.0 0.0 0.0 0.0 0.0 0.0 0.0 0.0 0.0 0.0 0.0 0.0 0.0 0.0 0.0 0.0 0.0 0.0 0.0 0.0 0.0 0.0 0.0 0.0 0.0 0.0 0.0 0.0 0.0 0.0 0.0 0.0 0.0 0.0 0.0 0.0 0.0 0.0 0.0 0.0 0.0 0.0 0.0 0.0 0.0 0.0 0.0 0.0 0.0 0.0 0.0 0.0 0.0 0.0 0.0 0.0 0.0 0.0 0.0 0.0 0.0 0.0 8.475243 8.3340025 0.0 0.0 0.0 9.039746 9.139394 3.9612896 4.5123243 4.266386 4.279413 4.12159 3.9016106 3.817046 3.8392313 5.107116 3.9761348 4.7863035 4.7729983 4.0701866 3.623491 3.5964196 4.0199113 0.0 0.0 0.0 0.0 0.0 0.0 0.0 0.0 0.0 0.0 0.0 0.0 2.449301 2.3424985 2.3553715 2.2391255 2.2666018 2.1121006 2.0958974 2.0380602 0.0 1.9492911 1.9007503 1.8955991 1.8958561 1.8280847 1.7716658 1.7432225 1.7071177 1.7336109 1.638916 0.0 0.0 0.0 0.0 0.0 0.0 0.0 0.0 0.0 0.0 0.0 0.0 0.0 0.0 0.0 0.0 0.0 0.0 0.0 0.0 0.0 0.0 0.0 0.0 0.0 0.0 0.0 0.0 0.0 0.0 0.0 0.0 0.0 0.0 0.0 0.0 0.0 0.0 0.0 0.0 0.0 0.0 0.0 0.0 0.0 0.0 0.0 0.0 0.0 0.0 0.0 0.0 0.0 0.0 0.0 0.0 0.0 0.0 0.0 0.0 0.0 0.0 0.0 0.237 5.641 13.798573 0.237 5.641 13.798573 1450437446.327000 toby 1450437446.327000
ODOM 0.237 5.641 13.798573 0.000000 0.000000 0.000000 1450437446.328000 toby 1450437446.328000
ENCODER 2805 2789 1450437446.328000 toby 1450437446.328000
FLASER 180 0.0 0.0 0.0 0.0 0.0 0.0 0.0 0.0 0.0 0.0 0.0 0.0 0.0 0.0 0.0 0.0 0.0 0.0 0.0 0.0 0.0 0.0 0.0 0.0 0.0 0.0 0.0 0.0 0.0 0.0 0.0 0.0 0.0 0.0 0.0 0.0 0.0 0.0 0.0 0.0 0.0 0.0 0.0 0.0 0.0 0.0 0.0 0.0 0.0 0.0 0.0 0.0 0.0 0.0 0.0 0.0 0.0 0.0 0.0 0.0 0.0 0.0 0.0 8.165567 8.319202 0.0 0.0 0.0 8.818294 9.132656 4.1151156 4.6104407 4.1103277 4.227238 3.9492948 3.8726792 3.9045928 4.1332173 5.0060763 4.4837046 4.107906 0.0 3.9582186 3.8943725 3.822675 3.8953876 0.0 7.8313236 0.0 0.0 0.0 0.0 0.0 0.0 0.0 0.0 0.0 0.0 2.4735615 2.369016 2.333357 2.3095126 2.1622496 2.1632783 2.1652906 2.0523238 1.9978015 1.9492911 1.9890233 1.8955991 1.8894548 1.8098254 1.8343986 1.8467551 0.0 1.7225405 1.7123003 3.4282818 0.0 0.0 0.0 0.0 0.0 0.0 0.0 0.0 0.0 0.0 0.0 0.0 0.0 0.0 0.0 0.0 0.0 0.0 0.0 0.0 0.0 0.0 0.0 0.0 0.0 0.0 0.0 0.0 0.0 0.0 0.0 0.0 0.0 0.0 0.0 0.0 0.0 0.0 0.0 0.0 0.0 0.0 0.0 0.0 0.0 0.0 0.0 0.0 0.0 0.0 0.0 0.0 0.0 0.0 0.0 0.0 0.0 0.0 0.0 0.0 0.0 0.0 0.237 5.641 13.798573 0.237 5.641 13.798573 1450437446.395000 toby 1450437446.395000
ODOM 0.237 5.641 13.798573 0.000000 0.000000 0.000000 1450437446.395000 toby 1450437446.395000
ENCODER 2805 2789 1450437446.395000 toby 1450437446.395000
FLASER 180 0.0 0.0 0.0 0.0 0.0 0.0 0.0 0.0 0.0 0.0 0.0 0.0 0.0 0.0 0.0 0.0 0.0 0.0 0.0 0.0 0.0 0.0 0.0 0.0 0.0 0.0 0.0 0.0 0.0 0.0 0.0 0.0 0.0 0.0 0.0 0.0 0.0 0.0 0.0 0.0 0.0 0.0 0.0 0.0 0.0 0.0 0.0 0.0 0.0 0.0 0.0 0.0 0.0 0.0 0.0 0.0 0.0 0.0 0.0 0.0 0.0 0.0 0.0 8.069934 8.085756 0.0 0.0 0.0 8.537717 8.758937 3.8467157 5.2529488 4.300996 3.8536634 3.9046643 3.9171097 3.8458848 4.0195155 4.7499037 4.739754 4.612901 4.6850214 4.7167764 4.4770246 4.416532 0.0 0.0 0.0 0.0 0.0 0.0 0.0 0.0 0.0 0.0 0.0 2.6274102 0.0 2.491757 2.4196792 2.2907653 0.0 0.0 2.0833478 2.1104932 2.0672314 0.0 0.0 1.9039128 1.8690797 1.9001238 1.8710929 1.8073586 1.7914257 0.0 1.7125772 1.6752402 3.8222759 0.0 0.0 0.0 0.0 0.0 0.0 0.0 0.0 0.0 0.0 0.0 0.0 0.0 0.0 0.0 0.0 0.0 0.0 0.0 0.0 0.0 0.0 0.0 0.0 0.0 0.0 0.0 0.0 0.0 0.0 0.0 0.0 0.0 0.0 0.0 0.0 0.0 0.0 0.0 0.0 0.0 0.0 0.0 0.0 0.0 0.0 0.0 0.0 0.0 0.0 0.0 0.0 0.0 0.0 0.0 0.0 0.0 0.0 0.0 0.0 0.0 0.0 0.237 5.641 13.798573 0.237 5.641 13.798573 1450437446.457000 toby 1450437446.457000
ODOM 0.237 5.641 13.798573 0.000000 0.000000 0.000000 1450437446.457000 toby 1450437446.457000
ENCODER 2805 2789 1450437446.457000 toby 1450437446.457000
FLASER 180 0.0 0.0 0.0 0.0 0.0 0.0 0.0 0.0 0.0 0.0 0.0 0.0 0.0 0.0 0.0 0.0 0.0 0.0 0.0 0.0 0.0 0.0 0.0 0.0 0.0 0.0 0.0 0.0 0.0 0.0 0.0 0.0 0.0 0.0 0.0 0.0 0.0 0.0 0.0 0.0 0.0 0.0 0.0 0.0 0.0 0.0 0.0 0.0 0.0 0.0 0.0 0.0 0.0 0.0 0.0 0.0 0.0 0.0 0.0 0.0 0.0 0.0 0.0 7.676268 0.0 0.0 0.0 0.0 9.039746 8.687395 4.1957417 4.291825 4.2710047 4.210542 4.4007916 4.1361623 4.2030563 3.912984 4.460051 4.139543 4.043007 4.080307 4.1443567 4.379391 3.927158 4.133747 0.0 0.0 0.0 0.0 0.0 0.0 0.0 2.8804853 0.0 0.0 0.0 7.8155456 2.4674964 2.420548 2.4018052 2.2187233 2.1889715 0.0 0.0 2.0451922 1.9760739 1.9972912 1.9323767 1.9263614 1.8862543 1.8188802 1.8192562 1.7489024 1.6686691 1.7225405 1.6506699 1.6846322 0.0 0.0 0.0 0.0 0.0 0.0 0.0 0.0 0.0 0.0 0.0 0.0 0.0 0.0 0.0 0.0 0.0 0.0 0.0 0.0 0.0 0.0 0.0 0.0 0.0 0.0 0.0 0.0 0.0 0.0 0.0 0.0 0.0 0.0 0.0 0.0 0.0 0.0 0.0 0.0 0.0 0.0 0.0 0.0 0.0 0.0 0.0 0.0 0.0 0.0 0.0 0.0 0.0 0.0 0.0 0.0 0.0 0.0 0.0 0.0 0.0 0.0 0.237 5.641 13.798573 0.237 5.641 13.798573 1450437446.523000 toby 1450437446.523000
ODOM 0.237 5.641 13.798573 0.000000 0.000000 0.000000 1450437446.523000 toby 1450437446.523000
ENCODER 2805 2789 1450437446.523000 toby 1450437446.523000
FLASER 180 0.0 0.0 0.0 0.0 0.0 0.0 0.0 0.0 0.0 0.0 0.0 0.0 0.0 0.0 0.0 0.0 0.0 0.0 0.0 0.0 0.0 0.0 0.0 0.0 0.0 0.0 0.0 0.0 0.0 0.0 0.0 0.0 0.0 0.0 0.0 0.0 0.0 0.0 0.0 0.0 0.0 0.0 0.0 0.0 0.0 0.0 0.0 0.0 0.0 0.0 0.0 0.0 0.0 0.0 0.0 0.0 0.0 0.0 0.0 0.0 0.0 0.0 0.0 8.411518 8.085756 0.0 0.0 0.0 8.964495 9.893978 4.0366116 3.8529363 3.9905605 3.911056 4.2222686 4.054534 3.9045928 3.9887853 4.840738 4.319935 4.7416854 4.3250246 4.1710587 3.949605 3.942228 4.2236385 0.0 0.0 0.0 0.0 0.0 0.0 0.0 0.0 0.0 0.0 0.0 0.0 2.503082 2.387098 2.3571393 0.0 0.0 0.0 0.0 2.0696888 0.0 1.891492 1.8794585 1.8690797 1.8926555 1.8743078 1.795461 1.8461975 1.7718534 1.7612866 1.6655687 0.0 0.0 0.0 0.0 0.0 0.0 0.0 0.0 0.0 0.0 0.0 0.0 0.0 0.0 0.0 0.0 0.0 0.0 0.0 0.0 0.0 0.0 0.0 0.0 0.0 0.0 0.0 0.0 0.0 0.0 0.0 0.0 0.0 0.0 0.0 0.0 0.0 0.0 0.0 0.0 0.0 0.0 0.0 0.0 0.0 0.0 0.0 0.0 0.0 0.0 0.0 0.0 0.0 0.0 0.0 0.0 0.0 0.0 0.0 0.0 0.0 0.0 0.0 0.237 5.641 13.798573 0.237 5.641 13.798573 1450437446.595000 toby 1450437446.595000
ODOM 0.237 5.641 13.798573 0.000000 0.000000 0.000000 1450437446.596000 toby 1450437446.596000
ENCODER 2805 2789 1450437446.596000 toby 1450437446.596000
FLASER 180 0.0 0.0 0.0 0.0 0.0 0.0 0.0 0.0 0.0 0.0 0.0 0.0 0.0 0.0 0.0 0.0 0.0 0.0 0.0 0.0 0.0 0.0 0.0 0.0 0.0 0.0 0.0 0.0 0.0 0.0 0.0 0.0 0.0 0.0 0.0 0.0 0.0 0.0 0.0 0.0 0.0 0.0 0.0 0.0 0.0 0.0 0.0 0.0 0.0 0.0 0.0 0.0 0.0 0.0 0.0 0.0 0.0 0.0 0.0 0.0 0.0 0.0 0.0 8.958409 0.0 0.0 0.0 0.0 8.964495 9.985806 3.9464376 4.2738895 4.039314 4.2627172 4.2918096 3.773486 3.7853227 3.912984 4.621307 4.450521 3.979122 4.0155883 4.567486 0.0 3.8668797 3.985419 0.0 0.0 0.0 0.0 0.0 0.0 0.0 0.0 0.0 0.0 0.0 0.0 2.4856918 2.3801618 0.0 2.3350272 2.314657 2.113169 0.0 2.0433748 0.0 0.0 1.9176177 1.8786267 1.8926555 1.7969364 1.7684209 1.8232623 1.6576053 1.7867483 1.6648457 1.6160934 0.0 0.0 0.0 0.0 0.0 0.0 0.0 0.0 0.0 0.0 0.0 0.0 0.0 0.0 0.0 0.0 0.0 0.0 0.0 0.0 0.0 0.0 0.0 0.0 0.0 0.0 0.0 0.0 0.0 0.0 0.0 0.0 0.0 0.0 0.0 0.0 0.0 0.0 0.0 0.0 0.0 0.0 0.0 0.0 0.0 0.0 0.0 0.0 0.0 0.0 0.0 0.0 0.0 0.0 0.0 0.0 0.0 0.0 0.0 0.0 0.0 0.0 0.237 5.641 13.798573 0.237 5.641 13.798573 1450437446.663000 toby 1450437446.663000
ODOM 0.237 5.641 13.798573 0.000000 0.000000 0.000000 1450437446.663000 toby 1450437446.663000
ENCODER 2805 2789 1450437446.663000 toby 1450437446.663000
FLASER 180 0.0 0.0 0.0 0.0 0.0 0.0 0.0 0.0 0.0 0.0 0.0 0.0 0.0 0.0 0.0 0.0 0.0 0.0 0.0 0.0 0.0 0.0 0.0 0.0 0.0 0.0 0.0 0.0 0.0 0.0 0.0 0.0 0.0 0.0 0.0 0.0 0.0 0.0 0.0 0.0 0.0 0.0 0.0 0.0 0.0 0.0 0.0 0.0 0.0 0.0 0.0 0.0 0.0 0.0 0.0 0.0 0.0 0.0 0.0 0.0 0.0 0.0 0.0 2.9316802 0.0 0.0 0.0 0.0 9.194547 9.456191 4.59569 4.30976 4.0209746 3.9402742 4.328137 4.2549872 3.6001205 4.1168275 4.707038 4.2433367 4.026782 4.2708225 4.15391 4.130985 4.259696 0.0 0.0 0.0 0.0 0.0 0.0 0.0 0.0 0.0 0.0 0.0 0.0 0.0 2.503082 2.4327114 2.433049 2.2891107 2.2706985 0.0 2.0547316 2.0796785 1.9187208 1.9107721 1.9007503 1.8924167 1.8894548 1.8070832 1.8225011 1.8109814 3.7331119 1.7336109 1.6637037 1.6622077 0.0 0.0 0.0 0.0 0.0 0.0 0.0 0.0 0.0 0.0 0.0 0.0 0.0 0.0 0.0 0.0 0.0 0.0 0.0 0.0 0.0 0.0 0.0 0.0 0.0 0.0 0.0 0.0 0.0 0.0 0.0 0.0 0.0 0.0 0.0 0.0 0.0 0.0 0.0 0.0 0.0 0.0 0.0 0.0 0.0 0.0 0.0 0.0 0.0 0.0 0.0 0.0 0.0 0.0 0.0 0.0 0.0 0.0 0.0 0.0 0.0 0.0 0.237 5.641 13.798573 0.237 5.641 13.798573 1450437446.726000 toby 1450437446.726000
ODOM 0.237 5.641 13.798573 0.000000 0.000000 0.000000 1450437446.727000 toby 1450437446.727000
ENCODER 2805 2789 1450437446.727000 toby 1450437446.727000
FLASER 180 0.0 0.0 0.0 0.0 0.0 0.0 0.0 0.0 0.0 0.0 0.0 0.0 0.0 0.0 0.0 0.0 0.0 0.0 0.0 0.0 0.0 0.0 0.0 0.0 0.0 0.0 0.0 0.0 0.0 0.0 0.0 0.0 0.0 0.0 0.0 0.0 0.0 0.0 0.0 0.0 0.0 0.0 0.0 0.0 0.0 0.0 0.0 0.0 0.0 0.0 0.0 0.0 0.0 0.0 0.0 0.0 0.0 0.0 0.0 0.0 0.0 0.0 0.0 8.324888 7.4379587 0.0 0.0 0.0 9.274097 9.055778 4.423829 4.5123243 4.266386 3.797314 4.364464 3.8437479 4.658859 4.0840487 4.580483 4.3705354 4.2640696 3.8183987 4.7843604 4.1116557 0.0 0.0 0.0 0.0 0.0 0.0 0.0 0.0 0.0 0.0 0.0 0.0 0.0 0.0 2.5230935 2.385396 2.3719923 0.0 0.0 2.1747956 2.1937883 2.0743432 2.0146568 0.0 1.9007503 1.8892345 1.9001238 1.8124455 1.8225011 1.799017 1.6708661 1.7778921 1.6496947 1.6206012 0.0 0.0 0.0 0.0 0.0 0.0 0.0 0.0 0.0 0.0 0.0 0.0 0.0 0.0 0.0 0.0 0.0 0.0 0.0 0.0 0.0 0.0 0.0 0.0 0.0 0.0 0.0 0.0 0.0 0.0 0.0 0.0 0.0 0.0 0.0 0.0 0.0 0.0 0.0 0.0 0.0 0.0 0.0 0.0 0.0 0.0 0.0 0.0 0.0 0.0 0.0 0.0 0.0 0.0 0.0 0.0 0.0 0.0 0.0 0.0 0.0 0.0 0.237 5.641 13.798573 0.237 5.641 13.798573 1450437446.805000 toby 1450437446.805000
ODOM 0.237 5.641 13.798573 0.000000 0.000000 0.000000 1450437446.805000 toby 1450437446.805000
ENCODER 2805 2789 1450437446.805000 toby 1450437446.805000
FLASER 180 0.0 0.0 0.0 0.0 0.0 0.0 0.0 0.0 0.0 0.0 0.0 0.0 0.0 0.0 0.0 0.0 0.0 0.0 0.0 0.0 0.0 0.0 0.0 0.0 0.0 0.0 0.0 0.0 0.0 0.0 0.0 0.0 0.0 0.0 0.0 0.0 0.0 0.0 0.0 0.0 0.0 0.0 0.0 0.0 0.0 0.0 0.0 0.0 0.0 0.0 0.0 0.0 0.0 0.0 0.0 0.0 0.0 0.0 0.0 0.0 0.0 0.0 0.0 0.0 7.871205 0.0 0.0 0.0 9.274097 9.625968 4.179829 4.206368 4.4714403 4.1938457 4.1548038 3.8292823 3.6677012 3.958055 3.8252342 4.3504553 4.043007 4.4382815 4.15391 3.6767695 4.2416124 4.2022033 0.0 0.0 0.0 0.0 0.0 0.0 0.0 0.0 0.0 2.8768015 0.0 0.0 2.5160174 2.4257588 0.0 0.0 2.2246847 2.053527 0.0 2.0878198 1.9917156 1.9536052 1.9007503 1.9062068 1.9001238 1.8407773 1.7543601 1.8274069 4.9071393 1.7867483 1.7077999 3.5080574 0.0 0.0 0.0 0.0 0.0 0.0 0.0 0.0 0.0 0.0 0.0 0.0 0.0 0.0 0.0 0.0 0.0 0.0 0.0 0.0 0.0 0.0 0.0 0.0 0.0 0.0 0.0 0.0 0.0 0.0 0.0 0.0 0.0 0.0 0.0 0.0 0.0 0.0 0.0 0.0 0.0 0.0 0.0 0.0 0.0 0.0 0.0 0.0 0.0 0.0 0.0 0.0 0.0 0.0 0.0 0.0 0.0 0.0 0.0 0.0 0.0 0.0 0.237 5.641 13.798573 0.237 5.641 13.798573 1450437446.857000 toby 1450437446.857000
ODOM 0.237 5.641 13.798573 0.000000 0.000000 0.000000 1450437446.857000 toby 1450437446.857000
ENCODER 2805 2789 1450437446.857000 toby 1450437446.857000
FLASER 180 0.0 0.0 0.0 0.0 0.0 0.0 0.0 0.0 0.0 0.0 0.0 0.0 0.0 0.0 0.0 0.0 0.0 0.0 0.0 0.0 0.0 0.0 0.0 0.0 0.0 0.0 0.0 0.0 0.0 0.0 0.0 0.0 0.0 0.0 0.0 0.0 0.0 0.0 0.0 0.0 0.0 0.0 0.0 0.0 0.0 0.0 0.0 0.0 0.0 0.0 0.0 0.0 0.0 0.0 0.0 0.0 0.0 0.0 0.0 0.0 0.0 0.0 0.0 7.878252 2.9107933 0.0 0.0 0.0 9.039746 10.3744755 4.404733 3.8117902 4.4855785 4.143758 4.0105324 3.8437479 4.1022234 4.00415 4.600895 4.5337753 4.010557 4.7507515 4.6563873 3.9969115 0.0 4.2236385 0.0 0.0 0.0 0.0 0.0 0.0 0.0 0.0 0.0 0.0 0.0 0.0 2.4674964 2.3810163 2.3975563 0.0 0.0 2.1265368 2.115651 2.055822 0.0 0.0 1.9460814 1.9062068 1.8798529 1.8377515 1.7511153 1.7708017 1.7429978 1.772357 1.6852916 1.6510298 0.0 0.0 0.0 0.0 0.0 0.0 0.0 0.0 0.0 0.0 0.0 0.0 0.0 0.0 0.0 0.0 0.0 0.0 0.0 0.0 0.0 0.0 0.0 0.0 0.0 0.0 0.0 0.0 0.0 0.0 0.0 0.0 0.0 0.0 0.0 0.0 0.0 0.0 0.0 0.0 0.0 0.0 0.0 0.0 0.0 0.0 0.0 0.0 0.0 0.0 0.0 0.0 0.0 0.0 0.0 0.0 0.0 0.0 0.0 0.0 0.0 0.0 0.237 5.641 13.798573 0.237 5.641 13.798573 1450437446.919000 toby 1450437446.919000
ODOM 0.237 5.641 13.798573 0.000000 0.000000 0.000000 1450437446.919000 toby 1450437446.919000
ENCODER 2805 2789 1450437446.919000 toby 1450437446.919000
FLASER 180 0.0 0.0 0.0 0.0 0.0 0.0 0.0 0.0 0.0 0.0 0.0 0.0 0.0 0.0 0.0 0.0 0.0 0.0 0.0 0.0 0.0 0.0 0.0 0.0 0.0 0.0 0.0 0.0 0.0 0.0 0.0 0.0 0.0 0.0 0.0 0.0 0.0 0.0 0.0 0.0 0.0 0.0 0.0 0.0 0.0 0.0 0.0 0.0 0.0 0.0 0.0 0.0 0.0 0.0 0.0 0.0 0.0 0.0 0.0 0.0 0.0 0.0 0.0 7.3125653 2.8490505 0.0 0.0 0.0 8.746268 8.548585 4.65616 4.4732885 3.9758778 3.911056 3.763507 3.9315755 3.4681482 3.912984 4.663152 4.206016 4.6544776 4.866634 4.4464393 4.5575466 4.555284 0.0 0.0 0.0 0.0 0.0 0.0 3.2492871 0.0 0.0 0.0 0.0 0.0 0.0 2.497822 2.4673028 0.0 2.2003615 2.182748 0.0 2.0939887 2.0433748 0.0 0.0 1.9281598 1.9475769 1.8958561 1.8409737 1.8095218 1.7373415 1.7291186 1.7125772 1.7063111 1.6574003 0.0 0.0 0.0 0.0 0.0 0.0 0.0 0.0 0.0 0.0 0.0 0.0 0.0 0.0 0.0 0.0 0.0 0.0 0.0 0.0 0.0 0.0 0.0 0.0 0.0 0.0 0.0 0.0 0.0 0.0 0.0 0.0 0.0 0.0 0.0 0.0 0.0 0.0 0.0 0.0 0.0 0.0 0.0 0.0 0.0 0.0 0.0 0.0 0.0 0.0 0.0 0.0 0.0 0.0 0.0 0.0 0.0 0.0 0.0 0.0 0.0 0.0 0.237 5.641 13.798573 0.237 5.641 13.798573 1450437446.989000 toby 1450437446.989000
ODOM 0.237 5.641 13.798573 0.000000 0.000000 0.000000 1450437446.989000 toby 1450437446.989000
ENCODER 2805 2789 1450437446.989000 toby 1450437446.989000
FLASER 180 0.0 0.0 0.0 0.0 0.0 0.0 0.0 0.0 0.0 0.0 0.0 0.0 0.0 0.0 0.0 0.0 0.0 0.0 0.0 0.0 0.0 0.0 0.0 0.0 0.0 0.0 0.0 0.0 0.0 0.0 0.0 0.0 0.0 0.0 0.0 0.0 0.0 0.0 0.0 0.0 0.0 0.0 0.0 0.0 0.0 0.0 0.0 0.0 0.0 0.0 0.0 0.0 0.0 0.0 0.0 0.0 0.0 0.0 0.0 0.0 0.0 0.0 0.0 8.878825 9.005813 0.0 0.0 0.0 9.039746 9.211672 4.2466636 4.417372 4.318825 4.1270614 4.204624 4.1692266 4.241391 4.149606 4.886665 4.241617 4.3928533 4.1136775 4.634176 0.0 0.0 4.085186 0.0 0.0 0.0 0.0 0.0 0.0 0.0 0.0 0.0 0.0 0.0 0.0 2.4796267 2.3536484 2.3231902 2.3299286 0.0 0.0 0.0 2.0339136 1.9875444 0.0 1.9081298 1.9369692 1.9033245 1.8033808 1.7889714 1.9021747 0.0 1.7336109 1.6439689 3.2663846 0.0 0.0 0.0 0.0 0.0 0.0 0.0 0.0 0.0 0.0 0.0 0.0 0.0 0.0 0.0 0.0 0.0 0.0 0.0 0.0 0.0 0.0 0.0 0.0 0.0 0.0 0.0 0.0 0.0 0.0 0.0 0.0 0.0 0.0 0.0 0.0 0.0 0.0 0.0 0.0 0.0 0.0 0.0 0.0 0.0 0.0 0.0 0.0 0.0 0.0 0.0 0.0 0.0 0.0 0.0 0.0 0.0 0.0 0.0 0.0 0.0 0.0 0.237 5.641 13.798573 0.237 5.641 13.798573 1450437447.056000 toby 1450437447.056000
ODOM 0.237 5.641 13.798573 0.000000 0.000000 0.000000 1450437447.057000 toby 1450437447.057000
ENCODER 2805 2789 1450437447.057000 toby 1450437447.057000
FLASER 180 0.0 0.0 0.0 0.0 0.0 0.0 0.0 0.0 0.0 0.0 0.0 0.0 0.0 0.0 0.0 0.0 0.0 0.0 0.0 0.0 0.0 0.0 0.0 0.0 0.0 0.0 0.0 0.0 0.0 0.0 0.0 0.0 0.0 0.0 0.0 0.0 0.0 0.0 0.0 0.0 0.0 0.0 0.0 0.0 0.0 0.0 0.0 0.0 0.0 0.0 0.0 0.0 0.0 0.0 0.0 0.0 0.0 0.0 0.0 0.0 0.0 0.0 0.0 9.021924 8.9423685 0.0 0.0 0.0 8.675319 9.456191 4.2636375 4.0023 4.3366537 4.1938457 4.439194 4.11963 3.841912 3.97342 4.886665 4.965845 4.2640696 4.4190683 4.4867883 4.3602676 3.9120886 3.8961935 0.0 0.0 0.0 0.0 0.0 0.0 0.0 0.0 0.0 0.0 0.0 0.0 2.4796267 2.3587165 2.3101878 2.223824 2.2584262 0.0 0.0 2.0761397 1.994844 2.0027065 1.9081298 1.8892345 1.8830535 1.8216403 1.7684209 1.7074696 0.0 1.7203264 1.6596929 1.6532838 0.0 0.0 0.0 0.0 0.0 0.0 0.0 0.0 0.0 0.0 0.0 0.0 0.0 0.0 0.0 0.0 0.0 0.0 0.0 0.0 0.0 0.0 0.0 0.0 0.0 0.0 0.0 0.0 0.0 0.0 0.0 0.0 0.0 0.0 0.0 0.0 0.0 0.0 0.0 0.0 0.0 0.0 0.0 0.0 0.0 0.0 0.0 0.0 0.0 0.0 0.0 0.0 0.0 0.0 0.0 0.0 0.0 0.0 0.0 0.0 0.0 0.0 0.237 5.641 13.798573 0.237 5.641 13.798573 1450437447.124000 toby 1450437447.124000
ODOM 0.237 5.641 13.798573 0.000000 0.000000 0.000000 1450437447.124000 toby 1450437447.124000
ENCODER 2805 2789 1450437447.124000 toby 1450437447.124000
FLASER 180 0.0 0.0 0.0 0.0 0.0 0.0 0.0 0.0 0.0 0.0 0.0 0.0 0.0 0.0 0.0 0.0 0.0 0.0 0.0 0.0 0.0 0.0 0.0 0.0 0.0 0.0 0.0 0.0 0.0 0.0 0.0 0.0 0.0 0.0 0.0 0.0 0.0 0.0 0.0 0.0 0.0 0.0 0.0 0.0 0.0 0.0 0.0 0.0 0.0 0.0 0.0 0.0 0.0 0.0 0.0 0.0 0.0 0.0 0.0 0.0 0.0 0.0 0.0 7.508208 7.3344436 0.0 0.0 0.0 8.404416 8.480248 4.1469417 4.380447 4.2009287 4.0477552 4.239913 3.801384 3.7633958 4.1168275 4.933613 4.155157 6.076172 4.9617214 0.0 3.6767695 4.2064495 4.240714 0.0 0.0 0.0 0.0 0.0 0.0 0.0 0.0 0.0 0.0 0.0 0.0 2.4674964 2.387098 2.449368 0.0 0.0 2.0833478 2.0948026 2.0039594 0.0 1.9271016 1.8838828 1.8892345 1.8958561 1.7969364 3.6439207 1.7318988 0.0 1.7579656 1.7165627 1.7473997 0.0 0.0 0.0 0.0 0.0 0.0 0.0 0.0 0.0 0.0 0.0 0.0 0.0 0.0 0.0 0.0 0.0 0.0 0.0 0.0 0.0 0.0 0.0 0.0 0.0 0.0 0.0 0.0 0.0 0.0 0.0 0.0 0.0 0.0 0.0 0.0 0.0 0.0 0.0 0.0 0.0 0.0 0.0 0.0 0.0 0.0 0.0 0.0 0.0 0.0 0.0 0.0 0.0 0.0 0.0 0.0 0.0 0.0 0.0 0.0 0.0 0.0 0.237 5.641 13.798573 0.237 5.641 13.798573 1450437447.202000 toby 1450437447.202000
ODOM 0.237 5.641 13.798573 0.000000 0.000000 0.000000 1450437447.202000 toby 1450437447.202000
ENCODER 2805 2789 1450437447.203000 toby 1450437447.203000
FLASER 180 0.0 0.0 0.0 0.0 0.0 0.0 0.0 0.0 0.0 0.0 0.0 0.0 0.0 0.0 0.0 0.0 0.0 0.0 0.0 0.0 0.0 0.0 0.0 0.0 0.0 0.0 0.0 0.0 0.0 0.0 0.0 0.0 0.0 0.0 0.0 0.0 0.0 0.0 0.0 0.0 0.0 0.0 0.0 0.0 0.0 0.0 0.0 0.0 0.0 0.0 0.0 0.0 0.0 0.0 0.0 0.0 0.0 0.0 0.0 0.0 0.0 0.0 0.0 7.823472 8.381585 0.0 0.0 0.0 9.194547 8.687395 0.0 4.092426 4.132144 4.07906 4.2222686 3.7879515 3.97978 3.9887853 4.794811 4.4837046 3.9953468 3.8055034 4.15391 3.7301826 3.7574234 0.0 0.0 0.0 0.0 0.0 0.0 0.0 0.0 0.0 0.0 0.0 0.0 0.0 2.491757 2.3759482 2.30601 2.1677182 1.381003 0.0 2.177005 2.0599706 1.999015 1.9941592 1.9218345 1.923179 1.906525 1.8472023 1.7922162 1.7710869 1.6730632 1.7579656 1.683058 3.5641503 0.0 0.0 0.0 0.0 0.0 0.0 0.0 0.0 0.0 0.0 0.0 0.0 0.0 0.0 0.0 0.0 0.0 0.0 0.0 0.0 0.0 0.0 0.0 0.0 0.0 0.0 0.0 0.0 0.0 0.0 0.0 0.0 0.0 0.0 0.0 0.0 0.0 0.0 0.0 0.0 0.0 0.0 0.0 0.0 0.0 0.0 0.0 0.0 0.0 0.0 0.0 0.0 0.0 0.0 0.0 0.0 0.0 0.0 0.0 0.0 0.0 0.0 0.237 5.641 13.798573 0.237 5.641 13.798573 1450437447.256000 toby 1450437447.256000
ODOM 0.237 5.641 13.798573 0.000000 0.000000 0.000000 1450437447.256000 toby 1450437447.256000
ENCODER 2805 2789 1450437447.256000 toby 1450437447.256000
FLASER 180 0.0 0.0 0.0 0.0 0.0 0.0 0.0 0.0 0.0 0.0 0.0 0.0 0.0 0.0 0.0 0.0 0.0 0.0 0.0 0.0 0.0 0.0 0.0 0.0 0.0 0.0 0.0 0.0 0.0 0.0 0.0 0.0 0.0 0.0 0.0 0.0 0.0 0.0 0.0 0.0 0.0 0.0 0.0 0.0 0.0 0.0 0.0 0.0 0.0 0.0 0.0 0.0 0.0 0.0 0.0 0.0 0.0 0.0 0.0 0.0 0.0 0.0 0.0 0.0 8.870883 0.0 0.0 0.0 9.194547 9.055778 4.1469417 4.454298 4.4656525 4.01645 4.1548038 4.11963 4.118686 4.05127 4.910139 4.1748343 4.3928533 4.130868 4.006806 3.575914 0.0 0.0 0.0 0.0 0.0 0.0 0.0 0.0 0.0 0.0 0.0 0.0 0.0 0.0 2.491757 2.3262806 2.338441 2.294211 2.292138 2.1440182 2.1331868 2.0802817 2.0219562 1.8599396 1.8438226 1.8690797 1.8830535 1.8377515 1.7857265 1.8274069 0.0 1.7203264 1.7119871 1.6730353 0.0 0.0 0.0 0.0 0.0 0.0 0.0 0.0 0.0 0.0 0.0 0.0 0.0 0.0 0.0 0.0 0.0 0.0 0.0 0.0 0.0 0.0 0.0 0.0 0.0 0.0 0.0 0.0 0.0 0.0 0.0 0.0 0.0 0.0 0.0 0.0 0.0 0.0 0.0 0.0 0.0 0.0 0.0 0.0 0.0 0.0 0.0 0.0 0.0 0.0 0.0 0.0 0.0 0.0 0.0 0.0 0.0 0.0 0.0 0.0 0.0 0.0 0.237 5.641 13.798573 0.237 5.641 13.798573 1450437447.330000 toby 1450437447.330000
ODOM 0.237 5.641 13.798573 0.000000 0.000000 0.000000 1450437447.331000 toby 1450437447.331000
ENCODER 2805 2789 1450437447.331000 toby 1450437447.331000
FLASER 180 0.0 0.0 0.0 0.0 0.0 0.0 0.0 0.0 0.0 0.0 0.0 0.0 0.0 0.0 0.0 0.0 0.0 0.0 0.0 0.0 0.0 0.0 0.0 0.0 0.0 0.0 0.0 0.0 0.0 0.0 0.0 0.0 0.0 0.0 0.0 0.0 0.0 0.0 0.0 0.0 0.0 0.0 0.0 0.0 0.0 0.0 0.0 0.0 0.0 0.0 0.0 0.0 0.0 0.0 0.0 0.0 0.0 0.0 0.0 0.0 0.0 0.0 0.0 2.921225 0.0 0.0 0.0 0.0 8.964495 9.540545 4.1957417 4.2232485 4.357296 4.143758 4.12159 3.8437479 4.0127773 3.9426897 4.863191 4.029562 4.878582 4.841762 4.4081078 4.3481174 3.942228 4.2022033 0.0 0.0 0.0 0.0 0.0 0.0 0.0 0.0 2.8512068 0.0 0.0 0.0 2.4735615 2.4438615 2.3939178 2.223824 2.246173 0.0 2.1175363 2.031614 0.0 1.9443684 1.9460814 1.8818091 1.8926555 1.831307 2.8271358 1.7946967 1.7798424 1.6992929 1.6931094 3.4598372 0.0 0.0 0.0 0.0 0.0 0.0 0.0 0.0 0.0 0.0 0.0 0.0 0.0 0.0 0.0 0.0 0.0 0.0 0.0 0.0 0.0 0.0 0.0 0.0 0.0 0.0 0.0 0.0 0.0 0.0 0.0 0.0 0.0 0.0 0.0 0.0 0.0 0.0 0.0 0.0 0.0 0.0 0.0 0.0 0.0 0.0 0.0 0.0 0.0 0.0 0.0 0.0 0.0 0.0 0.0 0.0 0.0 0.0 0.0 0.0 0.0 0.0 0.237 5.641 13.798573 0.237 5.641 13.798573 1450437447.387000 toby 1450437447.387000
ODOM 0.237 5.641 13.798573 0.000000 0.000000 0.000000 1450437447.387000 toby 1450437447.387000
ENCODER 2805 2789 1450437447.387000 toby 1450437447.387000
FLASER 180 0.0 0.0 0.0 0.0 0.0 0.0 0.0 0.0 0.0 0.0 0.0 0.0 0.0 0.0 0.0 0.0 0.0 0.0 0.0 0.0 0.0 0.0 0.0 0.0 0.0 0.0 0.0 0.0 0.0 0.0 0.0 0.0 0.0 0.0 0.0 0.0 0.0 0.0 0.0 0.0 0.0 0.0 0.0 0.0 0.0 0.0 0.0 0.0 0.0 0.0 0.0 0.0 0.0 0.0 0.0 0.0 0.0 0.0 0.0 0.0 0.0 0.0 0.0 8.809512 10.535796 0.0 0.0 0.0 9.354724 9.372906 4.179829 4.454298 4.0209746 3.9861884 3.9347641 3.8726792 3.8314652 4.05127 4.3273726 4.3594775 4.043007 4.728504 4.9477735 5.1447215 0.0 3.8780305 0.0 0.0 0.0 0.0 0.0 0.0 0.0 0.0 0.0 0.0 0.0 0.0 2.4856918 2.3810163 0.0 2.3197136 2.2860134 2.1481314 2.1235685 2.0814545 1.9364481 1.9912148 1.8944249 1.8754444 1.906525 1.8568399 1.7889714 3.5110197 0.0 1.7468953 1.6931094 1.706252 0.0 0.0 0.0 0.0 0.0 0.0 0.0 0.0 0.0 0.0 0.0 0.0 0.0 0.0 0.0 0.0 0.0 0.0 0.0 0.0 0.0 0.0 0.0 0.0 0.0 0.0 0.0 0.0 0.0 0.0 0.0 0.0 0.0 0.0 0.0 0.0 0.0 0.0 0.0 0.0 0.0 0.0 0.0 0.0 0.0 0.0 0.0 0.0 0.0 0.0 0.0 0.0 0.0 0.0 0.0 0.0 0.0 0.0 0.0 0.0 0.0 0.0 0.237 5.641 13.798573 0.237 5.641 13.798573 1450437447.461000 toby 1450437447.461000
ODOM 0.237 5.641 13.798573 0.000000 0.000000 0.000000 1450437447.462000 toby 1450437447.462000
ENCODER 2805 2789 1450437447.462000 toby 1450437447.462000
FLASER 180 0.0 0.0 0.0 0.0 0.0 0.0 0.0 0.0 0.0 0.0 0.0 0.0 0.0 0.0 0.0 0.0 0.0 0.0 0.0 0.0 0.0 0.0 0.0 0.0 0.0 0.0 0.0 0.0 0.0 0.0 0.0 0.0 0.0 0.0 0.0 0.0 0.0 0.0 0.0 0.0 0.0 0.0 0.0 0.0 0.0 0.0 0.0 0.0 0.0 0.0 0.0 0.0 0.0 0.0 0.0 0.0 0.0 0.0 0.0 0.0 0.0 0.0 0.0 8.540083 9.610305 0.0 0.0 0.0 9.274097 8.830478 4.2806115 4.2738895 4.00888 4.4056773 4.188017 4.1361623 4.419125 3.883278 4.085489 4.368764 4.142383 4.7729983 4.7254357 4.4199185 3.9120886 3.986185 0.0 0.0 0.0 0.0 0.0 0.0 0.0 0.0 2.8177447 0.0 0.0 0.0 2.4371707 2.3921664 2.3813016 2.214643 2.1684282 0.0 2.074554 2.0701966 2.0501113 2.0327895 1.8575274 1.9295439 1.9001238 1.8377515 1.836559 1.7682189 1.6653736 1.7446811 1.6469663 1.6229857 0.0 0.0 0.0 0.0 0.0 0.0 0.0 0.0 0.0 0.0 0.0 0.0 0.0 0.0 0.0 0.0 0.0 0.0 0.0 0.0 0.0 0.0 0.0 0.0 0.0 0.0 0.0 0.0 0.0 0.0 0.0 0.0 0.0 0.0 0.0 0.0 0.0 0.0 0.0 0.0 0.0 0.0 0.0 0.0 0.0 0.0 0.0 0.0 0.0 0.0 0.0 0.0 0.0 0.0 0.0 0.0 0.0 0.0 0.0 0.0 0.0 0.0 0.237 5.641 13.798573 0.237 5.641 13.798573 1450437447.519000 toby 1450437447.519000
ODOM 0.237 5.641 13.798573 0.000000 0.000000 0.000000 1450437447.520000 toby 1450437447.520000
ENCODER 2805 2789 1450437447.520000 toby 1450437447.520000
FLASER 180 0.0 0.0 0.0 0.0 0.0 0.0 0.0 0.0 0.0 0.0 0.0 0.0 0.0 0.0 0.0 0.0 0.0 0.0 0.0 0.0 0.0 0.0 0.0 0.0 0.0 0.0 0.0 0.0 0.0 0.0 0.0 0.0 0.0 0.0 0.0 0.0 0.0 0.0 0.0 0.0 0.0 0.0 0.0 0.0 0.0 0.0 0.0 0.0 0.0 0.0 0.0 0.0 0.0 0.0 0.0 0.0 0.0 0.0 0.0 0.0 0.0 0.0 0.0 0.0 7.708129 0.0 0.0 0.0 9.039746 9.211672 4.6158466 3.7706444 4.318825 4.1270614 4.419474 4.4957385 3.7594767 4.1332173 3.9895518 4.431171 0.0 4.47772 4.276974 4.0000343 0.0 0.0 0.0 0.0 0.0 0.0 0.0 0.0 0.0 0.0 0.0 0.0 0.0 0.0 2.5038872 2.4033163 0.0 2.2738092 2.2298968 0.0 0.0 2.0339136 0.0 0.0 1.8838828 1.9772786 1.8894548 1.8151958 1.7716658 1.921176 1.2295184 1.7313967 62.089985 0.0 0.0 0.0 0.0 0.0 0.0 0.0 0.0 0.0 0.0 0.0 0.0 0.0 0.0 0.0 0.0 0.0 0.0 0.0 0.0 0.0 0.0 0.0 0.0 0.0 0.0 0.0 0.0 0.0 0.0 0.0 0.0 0.0 0.0 0.0 0.0 0.0 0.0 0.0 0.0 0.0 0.0 0.0 0.0 0.0 0.0 0.0 0.0 0.0 0.0 0.0 0.0 0.0 0.0 0.0 0.0 0.0 0.0 0.0 0.0 0.0 0.0 0.0 0.237 5.641 13.798573 0.237 5.641 13.798573 1450437447.600000 toby 1450437447.600000
ODOM 0.237 5.641 13.798573 0.000000 0.000000 0.000000 1450437447.601000 toby 1450437447.601000
ENCODER 2805 2789 1450437447.601000 toby 1450437447.601000
FLASER 180 0.0 0.0 0.0 0.0 0.0 0.0 0.0 0.0 0.0 0.0 0.0 0.0 0.0 0.0 0.0 0.0 0.0 0.0 0.0 0.0 0.0 0.0 0.0 0.0 0.0 0.0 0.0 0.0 0.0 0.0 0.0 0.0 0.0 0.0 0.0 0.0 0.0 0.0 0.0 0.0 0.0 0.0 0.0 0.0 0.0 0.0 0.0 0.0 0.0 0.0 0.0 0.0 0.0 0.0 0.0 0.0 0.0 0.0 0.0 0.0 0.0 0.0 0.0 0.0 0.0 0.0 0.0 0.0 9.039746 8.758937 4.0366116 4.124077 4.266386 4.063408 4.309454 3.6794584 3.7738886 4.1004386 4.004861 4.387073 4.3735867 4.6850214 4.924573 4.267667 0.0 3.9550664 0.0 0.0 0.0 0.0 0.0 0.0 0.0 2.9139078 2.8993943 0.0 0.0 0.0 2.4796267 2.4309769 2.3608086 2.34739 0.0 0.0 2.101952 2.0713804 2.0031862 1.980956 2.0024354 1.8955991 1.8926555 1.8280847 1.8343986 1.8001484 1.7813236 1.7900695 1.7221469 1.6273632 0.0 0.0 0.0 0.0 0.0 0.0 0.0 0.0 0.0 0.0 0.0 0.0 0.0 0.0 0.0 0.0 0.0 0.0 0.0 0.0 0.0 0.0 0.0 0.0 0.0 0.0 0.0 0.0 0.0 0.0 0.0 0.0 0.0 0.0 0.0 0.0 0.0 0.0 0.0 0.0 0.0 0.0 0.0 0.0 0.0 0.0 0.0 0.0 0.0 0.0 0.0 0.0 0.0 0.0 0.0 0.0 0.0 0.0 0.0 0.0 0.0 0.0 0.237 5.641 13.798573 0.237 5.641 13.798573 1450437447.663000 toby 1450437447.663000
ODOM 0.237 5.641 13.798573 0.000000 0.000000 0.000000 1450437447.663000 toby 1450437447.663000
ENCODER 2805 2789 1450437447.663000 toby 1450437447.663000
FLASER 180 0.0 0.0 0.0 0.0 0.0 0.0 0.0 0.0 0.0 0.0 0.0 0.0 0.0 0.0 0.0 0.0 0.0 0.0 0.0 0.0 0.0 0.0 0.0 0.0 0.0 0.0 0.0 0.0 0.0 0.0 0.0 0.0 0.0 0.0 0.0 0.0 0.0 0.0 0.0 0.0 0.0 0.0 0.0 0.0 0.0 0.0 0.0 0.0 0.0 0.0 0.0 0.0 0.0 0.0 0.0 0.0 0.0 0.0 0.0 0.0 0.0 0.0 0.0 9.400911 9.711101 0.0 0.0 0.0 9.1171465 9.211672 4.2466636 3.78436 3.8164651 3.8020058 4.188017 4.1361623 4.0538654 4.2715034 3.8395224 3.6882744 4.010557 4.7507515 4.3723664 3.9548442 0.0 3.9869707 0.0 0.0 0.0 0.0 0.0 0.0 0.0 0.0 0.0 0.0 0.0 0.0 2.4553661 2.369016 0.0 2.1677182 2.1635613 0.0 2.1484494 2.0350769 2.0146568 1.920995 1.9176177 1.9295439 1.8926555 1.8248626 1.7067696 1.762785 1.7174069 1.7989256 1.736633 0.0 0.0 0.0 0.0 0.0 0.0 0.0 0.0 0.0 0.0 0.0 0.0 0.0 0.0 0.0 0.0 0.0 0.0 0.0 0.0 0.0 0.0 0.0 0.0 0.0 0.0 0.0 0.0 0.0 0.0 0.0 0.0 0.0 0.0 0.0 0.0 0.0 0.0 0.0 0.0 0.0 0.0 0.0 0.0 0.0 0.0 0.0 0.0 0.0 0.0 0.0 0.0 0.0 0.0 0.0 0.0 0.0 0.0 0.0 0.0 0.0 0.0 0.0 0.237 5.641 13.798573 0.237 5.641 13.798573 1450437447.724000 toby 1450437447.724000
ODOM 0.237 5.641 13.798573 0.000000 0.000000 0.000000 1450437447.724000 toby 1450437447.724000
ENCODER 2805 2789 1450437447.724000 toby 1450437447.724000
FLASER 180 0.0 0.0 0.0 0.0 0.0 0.0 0.0 0.0 0.0 0.0 0.0 0.0 0.0 0.0 0.0 0.0 0.0 0.0 0.0 0.0 0.0 0.0 0.0 0.0 0.0 0.0 0.0 0.0 0.0 0.0 0.0 0.0 0.0 0.0 0.0 0.0 0.0 0.0 0.0 0.0 0.0 0.0 0.0 0.0 0.0 0.0 0.0 0.0 0.0 0.0 0.0 0.0 0.0 0.0 0.0 0.0 0.0 0.0 0.0 0.0 0.0 0.0 0.0 8.136703 0.0 0.0 0.0 0.0 9.194547 8.910722 4.0832896 4.4363627 4.052438 4.210542 4.309454 4.086565 4.442234 4.149606 3.9895518 3.9913924 4.1251445 4.5171576 4.258817 4.3422523 0.0 3.9550664 0.0 0.0 0.0 0.0 0.0 0.0 0.0 0.0 0.0 0.0 0.0 0.0 2.5230935 2.3810163 2.3171895 2.234025 2.2267652 0.0 0.0 2.0475237 1.965646 1.931475 1.872084 1.9263614 1.9033245 1.902886 1.7770737 0.0 1.7148074 1.7635006 1.6837887 1.6465218 0.0 0.0 0.0 0.0 0.0 0.0 0.0 0.0 0.0 0.0 0.0 0.0 0.0 0.0 0.0 0.0 0.0 0.0 0.0 0.0 0.0 0.0 0.0 0.0 0.0 0.0 0.0 0.0 0.0 0.0 0.0 0.0 0.0 0.0 0.0 0.0 0.0 0.0 0.0 0.0 0.0 0.0 0.0 0.0 0.0 0.0 0.0 0.0 0.0 0.0 0.0 0.0 0.0 0.0 0.0 0.0 0.0 0.0 0.0 0.0 0.0 0.0 0.237 5.641 13.798573 0.237 5.641 13.798573 1450437447.789000 toby 1450437447.789000
ODOM 0.237 5.641 13.798573 0.000000 0.000000 0.000000 1450437447.791000 toby 1450437447.791000
ENCODER 2805 2789 1450437447.791000 toby 1450437447.791000
